t,x,y,z,roll,pitch,yaw,vx,vy,vz,ax,ay,az
0.000000,0.5,-0.06,0.3846,0.000000,1.570796,0.000000,0.0,0.0,0.0,0.0,0.8481543741662949,-1.4003300596063615
0.008000,0.5,-0.059973888218261794,0.38455654180419707,0.000000,1.570796,0.000000,0.0,0.006399300655160472,-0.010695503187664358,0.0,0.751670789623823,-1.2735457373097283
0.016000,0.5,-0.05989966950598767,0.38443157668120637,0.000000,1.570796,0.000000,0.0,0.012026732633981168,-0.020376731796955653,0.0,0.6551872050813512,-1.146761415013095
0.024000,0.5,-0.05978351881258833,0.3842332188276548,0.000000,1.570796,0.000000,0.0,0.01688229593646209,-0.029043685827873877,0.0,0.5587036205388793,-1.0199770927164615
0.032000,0.5,-0.059631611087474515,0.3839695824401694,0.000000,1.570796,0.000000,0.0,0.02096599056260324,-0.03669636528041904,0.0,0.46222003599640743,-0.8931927704198284
0.040000,0.5,-0.059450121280056924,0.3836487817153771,0.000000,1.570796,0.000000,0.0,0.024277816512404612,-0.04333477015459113,0.0,0.36573645145393563,-0.7664084481231951
0.048000,0.5,-0.059245224339746286,0.38327893084990494,0.000000,1.570796,0.000000,0.0,0.026817773785866205,-0.048958900450390155,0.0,0.2692528669114638,-0.6396241258265618
0.056000,0.5,-0.0590230952159533,0.38286814404037983,0.000000,1.570796,0.000000,0.0,0.02858586238298803,-0.05356875616781612,0.0,0.17276928236899192,-0.5128398035299284
0.064000,0.5,-0.05878990885808871,0.38242453548342886,0.000000,1.570796,0.000000,0.0,0.029582082303770078,-0.05716433730686902,0.0,0.07628569782651995,-0.38605548123329525
0.072000,0.5,-0.05855184021556322,0.3819562193756789,0.000000,1.570796,0.000000,0.0,0.02980643354821235,-0.05974564386754885,0.0,-0.020197886715952018,-0.25927115893666186
0.080000,0.5,-0.05831506423778755,0.38147130991375705,0.000000,1.570796,0.000000,0.0,0.02925891611631485,-0.06131267584985561,0.0,-0.11668147125842365,-0.1324868366400287
0.088000,0.5,-0.058085755874172425,0.38097792129429026,0.000000,1.570796,0.000000,0.0,0.02793953000807757,-0.0618654332537893,0.0,-0.2131650558008955,-0.005702514343395526
0.096000,0.5,-0.05787009007412855,0.3804841677139055,0.000000,1.570796,0.000000,0.0,0.025848275223500514,-0.06140391607934992,0.0,-0.30964864034336737,0.12108180795323786
0.104000,0.5,-0.057674241787066656,0.37999816336922965,0.000000,1.570796,0.000000,0.0,0.022985151762583686,-0.05992812432653749,0.0,-0.40613222488583944,0.24786613024987147
0.112000,0.5,-0.05750411069177077,0.3795276932013426,0.000000,1.570796,0.000000,0.0,0.019527040838793076,-0.057649628410404406,0.0,-0.42684319236518603,0.2840176276833115
0.120000,0.5,-0.057361197563468296,0.37907528055325473,0.000000,1.570796,0.000000,0.0,0.016245714205302002,-0.055491556722853025,0.0,-0.393488466007582,0.2555002942045346
0.128000,0.5,-0.057243467696990305,0.378639219923996,0.000000,1.570796,0.000000,0.0,0.013231225382671762,-0.05356162370313186,0.0,-0.36013373964997797,0.2269829607257576
0.136000,0.5,-0.057148786389849916,0.37821768620422375,0.000000,1.570796,0.000000,0.0,0.01048357437090235,-0.0518598293512409,0.0,-0.32677901329237397,0.19846562724698064
0.144000,0.5,-0.05707501893956024,0.37780885428459526,0.000000,1.570796,0.000000,0.0,0.008002761169993773,-0.050386173667180165,0.0,-0.2934242869347699,0.16994829376820367
0.152000,0.5,-0.05702003064363438,0.377410899055768,0.000000,1.570796,0.000000,0.0,0.005788785779946036,-0.049140656650949646,0.0,-0.260069560577166,0.1414309602894268
0.160000,0.5,-0.05698168679958547,0.3770219954083992,0.000000,1.570796,0.000000,0.0,0.0038416482007591233,-0.04812327830254934,0.0,-0.22671483421956193,0.11291362681064987
0.168000,0.5,-0.05695785270492661,0.37664031823314637,0.000000,1.570796,0.000000,0.0,0.002161348432433042,-0.04733403862197924,0.0,-0.1933601078619579,0.08439629333187287
0.176000,0.5,-0.05694639365717091,0.37626404242066663,0.000000,1.570796,0.000000,0.0,0.0007478864749677974,-0.046772937609239375,0.0,-0.16000538150435395,0.05587895985309599
0.184000,0.5,-0.0569451749538315,0.3758913428616176,0.000000,1.570796,0.000000,0.0,-0.000398737671636621,-0.046439975264329705,0.0,-0.12665065514674995,0.027361626374319048
0.192000,0.5,-0.056952061892421475,0.3755203944466565,0.000000,1.570796,0.000000,0.0,-0.0012785240073802003,-0.04633515158725027,0.0,-0.09329592878914583,-0.0011557071044578926
0.200000,0.5,-0.05696491977045395,0.3751493720664407,0.000000,1.570796,0.000000,0.0,-0.0018914725322629576,-0.04645846657800104,0.0,-0.059941202431541774,-0.02967304058323489
0.208000,0.5,-0.056981613885442046,0.3747764506116276,0.000000,1.570796,0.000000,0.0,-0.0022375832462848723,-0.04680992023658202,0.0,-0.02658647607393777,-0.05819037406201183
0.216000,0.5,-0.057000009534898914,0.3743998049728746,0.000000,1.570796,0.000000,0.0,-0.0023168561762487807,-0.04738951252378663,0.0,0.006755224731644088,-0.08668865404173087
0.224000,0.5,-0.057018242518351296,0.3740180057254022,0.000000,1.570796,0.000000,0.0,-0.002230677341073172,-0.048048938138414155,0.0,0.014789484062258025,-0.07816774961514972
0.232000,0.5,-0.0570355289748237,0.3736312037419544,0.000000,1.570796,0.000000,0.0,-0.0020802244312526515,-0.04864019651762902,0.0,0.022823743392871965,-0.06964684518856853
0.240000,0.5,-0.05705135471171896,0.3732399443604145,0.000000,1.570796,0.000000,0.0,-0.001865497446787221,-0.04916328766143125,0.0,0.03085800272348587,-0.06112594076198741
0.248000,0.5,-0.05706520553643991,0.37284477291866597,0.000000,1.570796,0.000000,0.0,-0.0015864963876768782,-0.049618211569820825,0.0,0.03889226205409981,-0.05260503633540624
0.256000,0.5,-0.057076567256389404,0.3724462347545919,0.000000,1.570796,0.000000,0.0,-0.0012432212539216234,-0.05000496824279775,0.0,0.04692652138471375,-0.04408413190882507
0.264000,0.5,-0.05708492567897027,0.37204487520607565,0.000000,1.570796,0.000000,0.0,-0.000835672045521457,-0.05032355768036202,0.0,0.054960780715327694,-0.0355632274822439
0.272000,0.5,-0.057089766611585366,0.3716412396110005,0.000000,1.570796,0.000000,0.0,-0.0003638487624763795,-0.05057397988251366,0.0,0.06299504004594164,-0.02704232305566273
0.280000,0.5,-0.0570905758616375,0.37123587330724983,0.000000,1.570796,0.000000,0.0,0.0001722485952136098,-0.05075623484925263,0.0,0.07102929937655555,-0.018521418629081562
0.288000,0.5,-0.05708683923652956,0.37082932163270693,0.000000,1.570796,0.000000,0.0,0.0007726200275485105,-0.050870322580578956,0.0,0.0790635587071695,-0.010000514202500393
0.296000,0.5,-0.057078042543664345,0.37042212992525503,0.000000,1.570796,0.000000,0.0,0.001437265534528318,-0.05091624307649263,0.0,0.08709781803778338,-0.0014796097759192939
0.304000,0.5,-0.05706367159044472,0.3700148435227774,0.000000,1.570796,0.000000,0.0,0.0021661851161530413,-0.050893996336993666,0.0,0.09513207736839732,0.007041294650661875
0.312000,0.5,-0.05704321218427351,0.3696080077631575,0.000000,1.570796,0.000000,0.0,0.002959378772422676,-0.05080358236208205,0.0,0.10316633669901126,0.015562199077243044
0.320000,0.5,-0.05701615013255357,0.3692021679842786,0.000000,1.570796,0.000000,0.0,0.003816846503337223,-0.050645001151757775,0.0,0.1112005960296252,0.024083103503824227
0.328000,0.5,-0.056982039728360676,0.36879785267855236,0.000000,1.570796,0.000000,0.0,0.004687276846272236,-0.05043087382431286,0.0,0.09360549296079662,0.02629993476531423
0.336000,0.5,-0.056942006636822105,0.36839520382684876,0.000000,1.570796,0.000000,0.0,0.00526343366257241,-0.05023677147928766,0.0,0.050433711114246646,0.02222565149098929
0.344000,0.5,-0.056898745787772244,0.36799397741684053,0.000000,1.570796,0.000000,0.0,0.005494216224100183,-0.05007526340045704,0.0,0.0072619292676966984,0.018151368216664358
0.352000,0.5,-0.05685502017524923,0.36759391269439823,0.000000,1.570796,0.000000,0.0,0.0053796245308555595,-0.04994634958782102,0.0,-0.03590985257885297,0.01407708494233945
0.360000,0.5,-0.056813592793291276,0.3671947489053923,0.000000,1.570796,0.000000,0.0,0.0049196585828385365,-0.04985003004137961,0.0,-0.0790816344254029,0.010002801668014514
0.368000,0.5,-0.05677722663593655,0.366796225295693,0.000000,1.570796,0.000000,0.0,0.0041143183800491125,-0.04978630476113279,0.0,-0.1222534162719529,0.005928518393689578
0.376000,0.5,-0.05674868469722322,0.36639808111117095,0.000000,1.570796,0.000000,0.0,0.0029636039224872884,-0.04975517374708057,0.0,-0.16542519811850287,0.0018542351193646459
0.384000,0.5,-0.05673072997118948,0.3660000555976965,0.000000,1.570796,0.000000,0.0,0.0014675152101530642,-0.04975663699922296,0.0,-0.20859697996505283,-0.002220048154960297
0.392000,0.5,-0.0567261254518735,0.3656018880011402,0.000000,1.570796,0.000000,0.0,-0.00037394775695356007,-0.04979069451755994,0.0,-0.2517687618116028,-0.006294331429285233
0.400000,0.5,-0.05673763413331346,0.3652033175673724,0.000000,1.570796,0.000000,0.0,-0.0025607849788325844,-0.04985734630209152,0.0,-0.2949405436581528,-0.010368614703610161
0.408000,0.5,-0.05676801900954754,0.36480408354226357,0.000000,1.570796,0.000000,0.0,-0.005092996455484007,-0.0499565923528177,0.0,-0.3381123255047027,-0.014442897977935097
0.416000,0.5,-0.056820043074613934,0.36440392517168413,0.000000,1.570796,0.000000,0.0,-0.007970582186907837,-0.05008843266973848,0.0,-0.3812841073512526,-0.01851718125226004
0.424000,0.5,-0.05689646932255079,0.36400258170150457,0.000000,1.570796,0.000000,0.0,-0.011193542173104035,-0.05025286725285386,0.0,-0.4244558891978023,-0.022591464526584948
0.432000,0.5,-0.057000060747396115,0.36359979237759527,0.000000,1.570796,0.000000,0.0,-0.014761876268144493,-0.05044989608007792,0.0,-0.4675567533349739,-0.026655014551483773
0.440000,0.5,-0.05713210759307705,0.3631955193435265,0.000000,1.570796,0.000000,0.0,-0.018123587580719417,-0.05059597555745063,0.0,-0.37287107480875703,-0.009864854791692464
0.448000,0.5,-0.05728801818754574,0.3627906149587509,0.000000,1.570796,0.000000,0.0,-0.020727813465084607,-0.050607733756745,0.0,-0.27818539628254013,0.006925304968098844
0.456000,0.5,-0.05746173264737651,0.36238615379349337,0.000000,1.570796,0.000000,0.0,-0.022574553921240068,-0.05048517067796104,0.0,-0.1834997177563233,0.023715464727890156
0.464000,0.5,-0.057647191089143686,0.36198321041797843,0.000000,1.570796,0.000000,0.0,-0.023663808949185787,-0.050228286321098756,0.0,-0.08881403923010639,0.04050562448768147
0.472000,0.5,-0.05783833362942159,0.3615828594024307,0.000000,1.570796,0.000000,0.0,-0.023995578548921773,-0.049837080686158136,0.0,0.0058716392961104535,0.05729578424747278
0.480000,0.5,-0.05802910038478454,0.3611861753170748,0.000000,1.570796,0.000000,0.0,-0.023569862720448025,-0.0493115537731392,0.0,0.10055731782232658,0.07408594400726397
0.488000,0.5,-0.05821343147180687,0.3607942327321354,0.000000,1.570796,0.000000,0.0,-0.022386661463764536,-0.04865170558204192,0.0,0.19524299634854358,0.09087610376705528
0.496000,0.5,-0.058385267007062876,0.36040810621783703,0.000000,1.570796,0.000000,0.0,-0.02044597477887132,-0.04785753611286631,0.0,0.2899286748747604,0.10766626352684659
0.504000,0.5,-0.058538547107126915,0.3600288703444044,0.000000,1.570796,0.000000,0.0,-0.017747802665768368,-0.046929045365612376,0.0,0.38461435340097727,0.1244564232866379
0.512000,0.5,-0.05866721188857328,0.3596575996820621,0.000000,1.570796,0.000000,0.0,-0.014292145124455688,-0.0458662333402801,0.0,0.47930003192719417,0.14124658304642923
0.520000,0.5,-0.05876520146797631,0.35929536880103474,0.000000,1.570796,0.000000,0.0,-0.010079002154933257,-0.0446691000368695,0.0,0.5739857104534111,0.15803674280622054
0.528000,0.5,-0.05882645596191032,0.35894325227154705,0.000000,1.570796,0.000000,0.0,-0.005108373757201107,-0.043337645455380575,0.0,0.668671388979628,0.17482690256601185
0.536000,0.5,-0.05884491548694964,0.3586023246638236,0.000000,1.570796,0.000000,0.0,0.0006197400687407983,-0.04187186959581331,0.0,0.7633570675058446,0.19161706232580317
0.544000,0.5,-0.05881452015966858,0.3582736605480889,0.000000,1.570796,0.000000,0.0,0.007105339322892437,-0.04027177245816772,0.0,0.8580427460320615,0.20840722208559448
0.552000,0.5,-0.05872996645839199,0.35795824973745355,0.000000,1.570796,0.000000,0.0,0.013980192718272744,-0.038578617658986576,0.0,0.8332139368431167,0.21180471216537047
0.560000,0.5,-0.05859210713254673,0.35765639217966594,0.000000,1.570796,0.000000,0.0,0.02040400600805572,-0.03688656770105011,0.0,0.7727393856026263,0.21120777731874574
0.568000,0.5,-0.0584047924860229,0.35736805191962673,0.000000,1.570796,0.000000,0.0,0.026344022887914775,-0.03519929322188664,0.0,0.7122648343621358,0.210610842472121
0.576000,0.5,-0.05817189289009989,0.35709319075350565,0.000000,1.570796,0.000000,0.0,0.03180024335784991,-0.03351679422149617,0.0,0.6517902831216453,0.21001390762549627
0.584000,0.5,-0.0578972787160571,0.3568317704774727,0.000000,1.570796,0.000000,0.0,0.036772667417861046,-0.031839070699878715,0.0,0.5913157318811557,0.20941697277887153
0.592000,0.5,-0.05758482033517391,0.35658375288769756,0.000000,1.570796,0.000000,0.0,0.04126129506794833,-0.030166122657034243,0.0,0.5308411806406652,0.2088200379322468
0.600000,0.5,-0.05723838811872972,0.3563490997803501,0.000000,1.570796,0.000000,0.0,0.0452661263081117,-0.028497950092962767,0.0,0.4703666294001748,0.20822310308562206
0.608000,0.5,-0.056861852438003915,0.3561277729516001,0.000000,1.570796,0.000000,0.0,0.048787161138351146,-0.02683455300766429,0.0,0.4098920781596843,0.20762616823899732
0.616000,0.5,-0.0564590836642759,0.35591973419761735,0.000000,1.570796,0.000000,0.0,0.05182439955866666,-0.02517593140113881,0.0,0.3494175269191938,0.20702923339237259
0.624000,0.5,-0.05603395216882505,0.3557249453145718,0.000000,1.570796,0.000000,0.0,0.05437784156905825,-0.023522085273386322,0.0,0.2889429756787034,0.20643229854574785
0.632000,0.5,-0.05559032832293077,0.3555433680986332,0.000000,1.570796,0.000000,0.0,0.05644748716952591,-0.021873014624406835,0.0,0.2284684244382129,0.20583536369912311
0.640000,0.5,-0.05513208249787243,0.35537496434597127,0.000000,1.570796,0.000000,0.0,0.05803333636006966,-0.020228719454200347,0.0,0.1679938731977224,0.20523842885249838
0.648000,0.5,-0.054663085064929444,0.35521969585275587,0.000000,1.570796,0.000000,0.0,0.05913538914068947,-0.01858919976276686,0.0,0.1075193219572319,0.20464149400587364
0.656000,0.5,-0.05418720414740406,0.35507773794393016,0.000000,1.570796,0.000000,0.0,0.059754618069921425,-0.016862075059238025,0.0,0.04732528071893982,0.2306893838515995
0.664000,0.5,-0.05370829440375048,0.35495054493097344,0.000000,1.570796,0.000000,0.0,0.059892616607375854,-0.014895987275670744,0.0,-0.012825646355332024,0.26083256204022015
0.672000,0.5,-0.05323020550146363,0.35484004520198736,0.000000,1.570796,0.000000,0.0,0.05954940772823611,-0.012688754066594499,0.0,-0.07297657342960387,0.29097574022884076
0.680000,0.5,-0.05275678709987628,0.354748167920376,0.000000,1.570796,0.000000,0.0,0.0587249914325022,-0.010240375432009285,0.0,-0.13312750050387573,0.32111891841746143
0.688000,0.5,-0.05229188885832119,0.3546768422495432,0.000000,1.570796,0.000000,0.0,0.0574193677201741,-0.007550851371915112,0.0,-0.19327842757814756,0.35126209660608204
0.696000,0.5,-0.05183936043613108,0.35462799735289335,0.000000,1.570796,0.000000,0.0,0.05563253659125182,-0.004620181886311969,0.0,-0.2534293546524194,0.38140527479470265
0.704000,0.5,-0.05140305149263874,0.3546035623938303,0.000000,1.570796,0.000000,0.0,0.05336449804573541,-0.0014483669751999082,0.0,-0.3135802817266904,0.4115484529833229
0.712000,0.5,-0.0509868116871769,0.3546054665357582,0.000000,1.570796,0.000000,0.0,0.0506152520836248,0.00196459336142116,0.0,-0.37373120880096233,0.4416916311719435
0.720000,0.5,-0.05059449067907833,0.35463563894208106,0.000000,1.570796,0.000000,0.0,0.04738479870492002,0.005618699123551193,0.0,-0.43388213587523405,0.47183480936056416
0.728000,0.5,-0.05022993812767577,0.35469600877620305,0.000000,1.570796,0.000000,0.0,0.043673137909621046,0.009513950311190194,0.0,-0.494033062949506,0.5019779875491848
0.736000,0.5,-0.049897003692301975,0.3547885052015281,0.000000,1.570796,0.000000,0.0,0.039480269697727916,0.013650346924338155,0.0,-0.5541839900237778,0.5321211657378054
0.744000,0.5,-0.049599537032289705,0.35491505738146045,0.000000,1.570796,0.000000,0.0,0.0348061940692406,0.01802788896299509,0.0,-0.6143349170980497,0.5622643439264261
0.752000,0.5,-0.04934138780697171,0.35507759447940407,0.000000,1.570796,0.000000,0.0,0.029650911024159107,0.022646576427160985,0.0,-0.6744858441723215,0.5924075221150467
0.760000,0.5,-0.049126347288453796,0.3552780109153518,0.000000,1.570796,0.000000,0.0,0.02407411679951994,0.02747088697706158,0.0,-0.6939470416255011,0.5983382126716621
0.768000,0.5,-0.048955418924314625,0.3555165422099252,0.000000,1.570796,0.000000,0.0,0.018725691119653828,0.03211410866021705,0.0,-0.6431593783410252,0.5624672081172032
0.776000,0.5,-0.04882565276038927,0.35579107140581817,0.000000,1.570796,0.000000,0.0,0.013783566746063527,0.03647036230693684,0.0,-0.5923717150565493,0.5265962035627443
0.784000,0.5,-0.04873379838622754,0.356099302758739,0.000000,1.570796,0.000000,0.0,0.009247743678749032,0.040539647917220964,0.0,-0.5415840517720734,0.4907251990082854
0.792000,0.5,-0.04867660539137921,0.3564389405243965,0.000000,1.570796,0.000000,0.0,0.005118221917710346,0.04432196549106941,0.0,-0.49079638848759743,0.45485419445382647
0.800000,0.5,-0.0486508233653941,0.35680768895849896,0.000000,1.570796,0.000000,0.0,0.0013950014629474684,0.047817315028482195,0.0,-0.4400087252031215,0.41898318989936756
0.808000,0.5,-0.048653201897821984,0.35720325231675504,0.000000,1.570796,0.000000,0.0,-0.001921917685539603,0.051025696529459305,0.0,-0.3892210619186456,0.38311218534490865
0.816000,0.5,-0.04868049057821267,0.3576233348548732,0.000000,1.570796,0.000000,0.0,-0.00483253552775087,0.05394710999400074,0.0,-0.33843339863416966,0.3472411807904498
0.824000,0.5,-0.04872943899611593,0.35806564082856185,0.000000,1.570796,0.000000,0.0,-0.0073368520636863215,0.05658155542210651,0.0,-0.2876457353496938,0.31137017623599084
0.832000,0.5,-0.04879679674108158,0.35852787449352974,0.000000,1.570796,0.000000,0.0,-0.009434867293345972,0.05892903281377659,0.0,-0.23685807206521786,0.275499171681532
0.840000,0.5,-0.048879313402659406,0.35900774010548514,0.000000,1.570796,0.000000,0.0,-0.011126581216729787,0.06098954216901099,0.0,-0.18607040878074266,0.23962816712707358
0.848000,0.5,-0.04897373857039919,0.3595029419201367,0.000000,1.570796,0.000000,0.0,-0.012411993833837832,0.06276308348780975,0.0,-0.13528274549626673,0.20375716257261467
0.856000,0.5,-0.04907682183385074,0.36001118419319295,0.000000,1.570796,0.000000,0.0,-0.013291105144670065,0.06424965677017282,0.0,-0.0844950822117908,0.16788615801815576
0.864000,0.5,-0.04918531278256384,0.3605301711803623,0.000000,1.570796,0.000000,0.0,-0.01376391514922648,0.06544926201610024,0.0,-0.03370741892731488,0.13201515346369685
0.872000,0.5,-0.04929587783209177,0.36105721433009763,0.000000,1.570796,0.000000,0.0,-0.01379443968241799,0.06619195619374982,0.0,0.0274589700111159,0.04712836377366976
0.880000,0.5,-0.04940468520554213,0.3615872722688688,0.000000,1.570796,0.000000,0.0,-0.013323721559093882,0.06619930119656633,0.0,0.09022056081991117,-0.04529211306954242
0.888000,0.5,-0.049507718463100016,0.3621144315124034,0.000000,1.570796,0.000000,0.0,-0.01235091070929941,0.06546728238463714,0.0,0.15298215162870643,-0.1377125899127546
0.896000,0.5,-0.049600960862953666,0.36263277715018355,0.000000,1.570796,0.000000,0.0,-0.010876007133034578,0.06399589975796226,0.0,0.21574374243750172,-0.23013306675596673
0.904000,0.5,-0.04968039566329132,0.3631363942716915,0.000000,1.570796,0.000000,0.0,-0.00889901083029938,0.06178515331654167,0.0,0.27850533324629695,-0.32255354359917887
0.912000,0.5,-0.0497420061223012,0.363619367966409,0.000000,1.570796,0.000000,0.0,-0.006419921801093822,0.05883504306037539,0.0,0.3412669240550923,-0.41497402044239107
0.920000,0.5,-0.04978177549817157,0.3640757833238182,0.000000,1.570796,0.000000,0.0,-0.0034387400454178995,0.055145568989463406,0.0,0.4040285148638875,-0.5073944972856033
0.928000,0.5,-0.04979568704909063,0.36449972543340103,0.000000,1.570796,0.000000,0.0,4.4534436728384946e-05,0.05071673110380573,0.0,0.4667901056726828,-0.5998149741288155
0.936000,0.5,-0.04977972403324666,0.3648852793846397,0.000000,1.570796,0.000000,0.0,0.00402990164534503,0.045548529403402364,0.0,0.5295516964814782,-0.6922354509720277
0.944000,0.5,-0.04972986970882786,0.3652265302670162,0.000000,1.570796,0.000000,0.0,0.00851736158043204,0.039640963888253285,0.0,0.5923132872902734,-0.7846559278152399
0.952000,0.5,-0.04964210733402249,0.36551756317001244,0.000000,1.570796,0.000000,0.0,0.013506914241989416,0.03299403455835851,0.0,0.6550748780990685,-0.877076404658452
0.960000,0.5,-0.04951242016701878,0.36575246318311055,0.000000,1.570796,0.000000,0.0,0.018998559630017064,0.025607741413718146,0.0,0.7178364689078631,-0.9694968815016629
0.968000,0.5,-0.04933679146600496,0.3659253153957926,0.000000,1.570796,0.000000,0.0,0.024992297744515155,0.01748208445433199,0.0,0.7805980597166582,-1.061917358344875
0.976000,0.5,-0.04911129039227597,0.36603033440085875,0.000000,1.570796,0.000000,0.0,0.03140029957753247,0.008749470392907839,0.0,0.7834942592741336,-1.0640877020548756
0.984000,0.5,-0.048836087736889654,0.3660679182073443,0.000000,1.570796,0.000000,0.0,0.03726641957770612,0.0008513374544623373,0.0,0.6830357407692761,-0.9104455325564982
0.992000,0.5,-0.04851717079409411,0.3660472334997462,0.000000,1.570796,0.000000,0.0,0.042328871429840896,-0.005817658127996144,0.0,0.5825772222644185,-0.7568033630581208
1.000000,0.5,-0.04816096890907364,0.36597811337691233,0.000000,1.570796,0.000000,0.0,0.046587655133936826,-0.011257516354467607,0.0,0.482118703759561,-0.6031611935597435
1.008000,0.5,-0.04777391142701255,0.36587039093769064,0.000000,1.570796,0.000000,0.0,0.05004277068999388,-0.01546823722495205,0.0,0.38166018525470347,-0.44951902406136623
1.016000,0.5,-0.04736242769309517,0.36573389928092903,0.000000,1.570796,0.000000,0.0,0.05269421809801208,-0.018449820739449466,0.0,0.2812016667498458,-0.29587685456298884
1.024000,0.5,-0.0469329470525058,0.36557847150547546,0.000000,1.570796,0.000000,0.0,0.05454199735799141,-0.02020226689795987,0.0,0.18074314824498838,-0.14223468506461168
1.032000,0.5,-0.04649189885042875,0.3654139407101777,0.000000,1.570796,0.000000,0.0,0.0555861084699319,-0.020725575700483258,0.0,0.08028462974013084,0.011407484433765935
1.040000,0.5,-0.04604571243204832,0.36525013999388367,0.000000,1.570796,0.000000,0.0,0.05582655143383351,-0.02001974714701963,0.0,-0.0201738887647267,0.1650496539321431
1.048000,0.5,-0.04560081714254885,0.3650969024554413,0.000000,1.570796,0.000000,0.0,0.05526332624969627,-0.018084781237568986,0.0,-0.12063240726958413,0.31869182343052027
1.056000,0.5,-0.045163642327114624,0.3649640611936985,0.000000,1.570796,0.000000,0.0,0.05389643291752017,-0.014920677972131285,0.0,-0.22109092577444178,0.47233399292889766
1.064000,0.5,-0.04474061733092996,0.36486144930750314,0.000000,1.570796,0.000000,0.0,0.0517258714373052,-0.01052743735070659,0.0,-0.32154944427929943,0.625976162427275
1.072000,0.5,-0.04433817149917918,0.3647988998957032,0.000000,1.570796,0.000000,0.0,0.04875164180905138,-0.004905059373294884,0.0,-0.42200796278415686,0.7796183319256522
1.080000,0.5,-0.043962734177046575,0.36478624605714643,0.000000,1.570796,0.000000,0.0,0.044973744032758695,0.0019464559601038434,0.0,-0.5224664812890143,0.9332605014240298
1.088000,0.5,-0.04362049977181702,0.3648329649695548,0.000000,1.570796,0.000000,0.0,0.04055610035669853,0.00977877327529227,0.0,-0.5466764718751919,0.971389329003558
1.096000,0.5,-0.04331310291294143,0.3649416259372739,0.000000,1.570796,0.000000,0.0,0.03634832725245252,0.017304759028048244,0.0,-0.505266804186308,0.9101071091854341
1.104000,0.5,-0.04303804312953375,0.36510853375998087,0.000000,1.570796,0.000000,0.0,0.032471831489717586,0.024340487022259227,0.0,-0.463857136497424,0.8488248893673103
1.112000,0.5,-0.04279267020286191,0.36532976637560727,0.000000,1.570796,0.000000,0.0,0.028926613068493732,0.03088595725792522,0.0,-0.42244746880854,0.7875426695491863
1.120000,0.5,-0.04257433391419382,0.3656014017220849,0.000000,1.570796,0.000000,0.0,0.025712671988780945,0.036941169735046214,0.0,-0.38103780111965607,0.7262604497310624
1.128000,0.5,-0.04238038404479738,0.3659195177373452,0.000000,1.570796,0.000000,0.0,0.022830008250579226,0.04250612445362222,0.0,-0.33962813343077214,0.6649782299129385
1.136000,0.5,-0.042208170375940525,0.36628019235932,0.000000,1.570796,0.000000,0.0,0.02027862185388858,0.04758082141365324,0.0,-0.29821846574188815,0.6036960100948147
1.144000,0.5,-0.04205504268889114,0.3666795035259409,0.000000,1.570796,0.000000,0.0,0.018058512798709014,0.052165260615139264,0.0,-0.2568087980530042,0.5424137902766908
1.152000,0.5,-0.04191835076491715,0.36711352917513945,0.000000,1.570796,0.000000,0.0,0.016169681085040515,0.05625944205808031,0.0,-0.21539913036412023,0.4811315704585669
1.160000,0.5,-0.04179544438528647,0.36757834724484734,0.000000,1.570796,0.000000,0.0,0.014612126712883127,0.05986336574247626,0.0,-0.17398946267523752,0.4198493506404447
1.168000,0.5,-0.04168367333126699,0.3680700356729963,0.000000,1.570796,0.000000,0.0,0.013385849682236758,0.06297703166832733,0.0,-0.13257979498635353,0.35856713082232083
1.176000,0.5,-0.041580387384126644,0.3685846723975178,0.000000,1.570796,0.000000,0.0,0.01249084999310146,0.0656004398356334,0.0,-0.09117012729746954,0.29728491100419696
1.184000,0.5,-0.041482936325133335,0.36911833535634364,0.000000,1.570796,0.000000,0.0,0.011927127645477247,0.06773359024439449,0.0,-0.04976045960858566,0.2360026911860731
1.192000,0.5,-0.04138867198824101,0.3696671013851958,0.000000,1.570796,0.000000,0.0,0.011688323768403898,0.06937306843762552,0.0,-0.021483256489698593,0.16766886807822903
1.200000,0.5,-0.041296568339871075,0.3702261763001503,0.000000,1.570796,0.000000,0.0,0.011248153627877393,0.07023628076035403,0.0,-0.08855927864192731,0.04813421260389844
1.208000,0.5,-0.04121013248533422,0.3707883318047113,0.000000,1.570796,0.000000,0.0,0.010271375310133057,0.0701432158392879,0.0,-0.15563530079415602,-0.07140044287043212
1.216000,0.5,-0.04113365729004819,0.3713459176809288,0.000000,1.570796,0.000000,0.0,0.008757988815170894,0.06909387367442711,0.0,-0.22271132294638474,-0.19093509834476274
1.224000,0.5,-0.04107143561943074,0.37189128371085206,0.000000,1.570796,0.000000,0.0,0.0067079941429909,0.06708825426577168,0.0,-0.2897873450986134,-0.31046975381909325
1.232000,0.5,-0.041027760338899585,0.37241677967653103,0.000000,1.570796,0.000000,0.0,0.004121391293593076,0.06412635761332161,0.0,-0.3568633672508421,-0.4300044092934239
1.240000,0.5,-0.0410069243138725,0.3729147553600151,0.000000,1.570796,0.000000,0.0,0.0009981802669774206,0.060208183717076896,0.0,-0.42393938940307085,-0.5495390647677545
1.248000,0.5,-0.04101322040976719,0.37337756054335414,0.000000,1.570796,0.000000,0.0,-0.002661638936856064,0.05533373257703753,0.0,-0.4910154115552996,-0.669073720242085
1.256000,0.5,-0.04105094149200144,0.3737975450085976,0.000000,1.570796,0.000000,0.0,-0.0068580663179073804,0.049503004193203526,0.0,-0.5580914337075282,-0.7886083757164156
1.264000,0.5,-0.04112438042599296,0.3741670585377952,0.000000,1.570796,0.000000,0.0,-0.011591101876176527,0.042715998565574884,0.0,-0.625167455859757,-0.9081430311907462
1.272000,0.5,-0.04123783007715952,0.3744784509129967,0.000000,1.570796,0.000000,0.0,-0.016860745611663504,0.034972715694151564,0.0,-0.6922434780119857,-1.027677686665077
1.280000,0.5,-0.041395583310918825,0.37472407191625157,0.000000,1.570796,0.000000,0.0,-0.022666997524368314,0.02627315557893363,0.0,-0.7593195001642145,-1.1472123421394071
1.288000,0.5,-0.04160193299268865,0.3748962713296095,0.000000,1.570796,0.000000,0.0,-0.029009857614290938,0.016617318219921046,0.0,-0.8263955223164432,-1.2667469976137382
1.296000,0.5,-0.04186117198788673,0.37498739893512023,0.000000,1.570796,0.000000,0.0,-0.035889325881431414,0.006005203617113805,0.0,-0.8934715444686718,-1.3862816530880688
1.304000,0.5,-0.042177176319108896,0.3749903782345006,0.000000,1.570796,0.000000,0.0,-0.04301483842074825,-0.005163271958463528,0.0,-0.8255208395586533,-1.3199729046210897
1.312000,0.5,-0.04254574993566974,0.3749092426897554,0.000000,1.570796,0.000000,0.0,-0.04888334601058582,-0.014819393744028849,0.0,-0.6416060579007377,-1.0940575417702383
1.320000,0.5,-0.04295538633993623,0.3747580874623369,0.000000,1.570796,0.000000,0.0,-0.053280535347160055,-0.022668192626787355,0.0,-0.4576912762428219,-0.868142178919387
1.328000,0.5,-0.04339431498588226,0.3745513711354676,0.000000,1.570796,0.000000,0.0,-0.05620640643047097,-0.028709668606739052,0.0,-0.27377649458490616,-0.6422268160685356
1.336000,0.5,-0.04385076532748173,0.3743035522923699,0.000000,1.570796,0.000000,0.0,-0.057660959260518556,-0.03294382168388394,0.0,-0.08986171292699041,-0.41631145321768415
1.344000,0.5,-0.04431296681870853,0.3740290895162663,0.000000,1.570796,0.000000,0.0,-0.05764419383730282,-0.035370651858221996,0.0,0.09405306873092523,-0.19039609036683292
1.352000,0.5,-0.04476914891353654,0.37374244139037915,0.000000,1.570796,0.000000,0.0,-0.056156110160823745,-0.03599015912975326,0.0,0.2779678503888411,0.035519272484018316
1.360000,0.5,-0.04520754106593967,0.37345806649793106,0.000000,1.570796,0.000000,0.0,-0.05319670823108136,-0.0348023434984777,0.0,0.4618826320467567,0.26143463533487
1.368000,0.5,-0.04561637272989181,0.37319042342214437,0.000000,1.570796,0.000000,0.0,-0.04876598804807565,-0.03180720496439535,0.0,0.6457974137046728,0.4873499981857212
1.376000,0.5,-0.04598387335936684,0.37295397074624154,0.000000,1.570796,0.000000,0.0,-0.04286394961180659,-0.02700474352750616,0.0,0.8297121953625884,0.7132653610365725
1.384000,0.5,-0.04629827240833868,0.3727631670534451,0.000000,1.570796,0.000000,0.0,-0.03549059292227422,-0.02039495918781016,0.0,1.013626977020504,0.9391807238874241
1.392000,0.5,-0.0465477993307812,0.3726324709269774,0.000000,1.570796,0.000000,0.0,-0.026645917979478503,-0.011977851945307372,0.0,1.1975417586784194,1.1650960867382754
1.400000,0.5,-0.0467206835806683,0.372576340950061,0.000000,1.570796,0.000000,0.0,-0.01632992478341949,-0.0017534217999977675,0.0,1.3814565403363352,1.391011449589127
1.408000,0.5,-0.04680516143219233,0.3726092265603281,0.000000,1.570796,0.000000,0.0,-0.00456365180116738,0.010250119659608339,0.0,1.5221061295328766,1.558910237255665
1.416000,0.5,-0.046794797717413565,0.37273843185153127,0.000000,1.570796,0.000000,0.0,0.006925272126242445,0.021716103932937297,0.0,1.3501248523195772,1.3075858310765727
1.424000,0.5,-0.04669802601208634,0.37295132263592323,0.000000,1.570796,0.000000,0.0,0.017038345835945875,0.031171492956833524,0.0,1.1781435751062779,1.0562614248974804
1.432000,0.5,-0.046525853117952314,0.37323181415150875,0.000000,1.570796,0.000000,0.0,0.025775569327942904,0.038616286731297,0.0,1.0061622978929785,0.804937018718388
1.440000,0.5,-0.04628928583675314,0.3735638216362922,0.000000,1.570796,0.000000,0.0,0.03313694260223354,0.044050485256327744,0.0,0.8341810206796789,0.5536126125392957
1.448000,0.5,-0.04599933097023046,0.37393126032827817,0.000000,1.570796,0.000000,0.0,0.03912246565881779,0.04747408853192574,0.0,0.6621997434663796,0.3022882063602035
1.456000,0.5,-0.045666995320125935,0.3743180454654712,0.000000,1.570796,0.000000,0.0,0.043732138497695625,0.048887096558090995,0.0,0.4902184662530802,0.05096380018111102
1.464000,0.5,-0.04530328568818122,0.3747080922858758,0.000000,1.570796,0.000000,0.0,0.046965961118867076,0.048289509334823524,0.0,0.3182371890397806,-0.20036060599798122
1.472000,0.5,-0.04491920887613794,0.37508531602749656,0.000000,1.570796,0.000000,0.0,0.04882393352233212,0.045681326862123284,0.0,0.14625591182648123,-0.45168501217707346
1.480000,0.5,-0.044525771685737785,0.375433631928338,0.000000,1.570796,0.000000,0.0,0.04930605570809077,0.04106254913999033,0.0,-0.025725365386818133,-0.7030094183561659
1.488000,0.5,-0.04413398091872237,0.3757369552264046,0.000000,1.570796,0.000000,0.0,0.048412327676143035,0.034433176168424645,0.0,-0.19770664260011794,-0.9543338245352584
1.496000,0.5,-0.04375484337683338,0.3759792011597009,0.000000,1.570796,0.000000,0.0,0.04614274942648888,0.025793207947426205,0.0,-0.3696879198134171,-1.2056582307143509
1.504000,0.5,-0.04339936586181244,0.37614428496623153,0.000000,1.570796,0.000000,0.0,0.04249732095912834,0.01514264447699501,0.0,-0.5416691970267167,-1.4569826368934424
1.512000,0.5,-0.04307841043780241,0.3762163685374442,0.000000,1.570796,0.000000,0.0,0.037613924419659994,0.0027164565335715605,0.0,-0.6260828749800388,-1.5590794059493949
1.520000,0.5,-0.04279699532624311,0.3761895725034716,0.000000,1.570796,0.000000,0.0,0.032807149495334,-0.009245108183094193,0.0,-0.5756108561014601,-1.4313117732170402
1.528000,0.5,-0.042552419309474315,0.376071172516013,0.000000,1.570796,0.000000,0.0,0.028404150722036624,-0.0201845318379011,0.0,-0.5251388372228815,-1.3035441404846855
1.536000,0.5,-0.04234145217828779,0.3758693457035635,0.000000,1.570796,0.000000,0.0,0.024404928099767884,-0.030101814430849177,0.0,-0.4746668183443028,-1.1757765077523308
1.544000,0.5,-0.042160863723475286,0.37559226919461774,0.000000,1.570796,0.000000,0.0,0.020809481628527773,-0.03899695596193841,0.0,-0.42419479946572414,-1.0480088750199759
1.552000,0.5,-0.042007423735828595,0.3752481201176707,0.000000,1.570796,0.000000,0.0,0.01761781130831629,-0.046869956431168806,0.0,-0.37372278058714553,-0.9202412422876212
1.560000,0.5,-0.041877902006139486,0.3748450756012173,0.000000,1.570796,0.000000,0.0,0.014829917139133435,-0.05372081583854036,0.0,-0.3232507617085668,-0.7924736095552665
1.568000,0.5,-0.041769068325199714,0.37439131277375237,0.000000,1.570796,0.000000,0.0,0.012445799120979215,-0.05954953418405308,0.0,-0.2727787428299882,-0.6647059768229115
1.576000,0.5,-0.04167769248380107,0.3738950087637708,0.000000,1.570796,0.000000,0.0,0.01046545725385362,-0.06435611146770695,0.0,-0.2223067239514096,-0.5369383440905569
1.584000,0.5,-0.04160054427273532,0.3733643406997673,0.000000,1.570796,0.000000,0.0,0.008888891537756662,-0.068140547689502,0.0,-0.17183470507283083,-0.40917071135820193
1.592000,0.5,-0.041534393482794224,0.37280748571023703,0.000000,1.570796,0.000000,0.0,0.007716101972688329,-0.07090284284943821,0.0,-0.12136268619425217,-0.28140307862584746
1.600000,0.5,-0.04147600990476956,0.3722326209236746,0.000000,1.570796,0.000000,0.0,0.006947088558648628,-0.07264299694751555,0.0,-0.07089066731567362,-0.15363544589349254
1.608000,0.5,-0.0414221633294531,0.3716479234685751,0.000000,1.570796,0.000000,0.0,0.006581851295637542,-0.07336100998373406,0.0,-0.020418648437094955,-0.02586781316113762
1.616000,0.5,-0.041369828596239264,0.3710614927984899,0.000000,1.570796,0.000000,0.0,0.006487273839052175,-0.07310730807359503,0.0,-0.027558860584194957,0.08007559487024644
1.624000,0.5,-0.04131933778634772,0.37048015660230077,0.000000,1.570796,0.000000,0.0,0.006069741473559266,-0.07210675980320574,0.0,-0.07682423078903214,0.1700614727270716
1.632000,0.5,-0.04127376372722668,0.36990970434036624,0.000000,1.570796,0.000000,0.0,0.005258086146427659,-0.07038632450996188,0.0,-0.12608960099386934,0.2600473505838967
1.640000,0.5,-0.041236259402569246,0.36935589510886896,0.000000,1.570796,0.000000,0.0,0.004052307857657355,-0.0679460021938634,0.0,-0.17535497119870652,0.35003322844072193
1.648000,0.5,-0.04120997779606853,0.368824488003992,0.000000,1.570796,0.000000,0.0,0.002452406607248352,-0.06478579285491032,0.0,-0.22462034140354373,0.4400191062975471
1.656000,0.5,-0.041198071891417644,0.368321242121918,0.000000,1.570796,0.000000,0.0,0.0004583823952006528,-0.06090569649310264,0.0,-0.27388571160838093,0.5300049841543721
1.664000,0.5,-0.04120369467230969,0.36785191655883,0.000000,1.570796,0.000000,0.0,-0.0019297647784857468,-0.05630571310844035,0.0,-0.32315108181321806,0.6199908620111974
1.672000,0.5,-0.041229999122437785,0.36742227041091063,0.000000,1.570796,0.000000,0.0,-0.004712034913810759,-0.05098584270092363,0.0,-0.37241645201805385,0.7099767398680201
1.680000,0.5,-0.04128013822549503,0.3670380627743428,0.000000,1.570796,0.000000,0.0,-0.007888428010774544,-0.04494608527055216,0.0,-0.4216818222228911,0.7999626177248453
1.688000,0.5,-0.04135726496517455,0.3667050527453094,0.000000,1.570796,0.000000,0.0,-0.011458944069377024,-0.0381864408173261,0.0,-0.4709471924277283,0.8899484955816703
1.696000,0.5,-0.04146453232516944,0.3664289994199932,0.000000,1.570796,0.000000,0.0,-0.015423583089618203,-0.03070690934124542,0.0,-0.5202125626325654,0.9799343734384955
1.704000,0.5,-0.041605093289172806,0.36621566189457705,0.000000,1.570796,0.000000,0.0,-0.019782345071498075,-0.022507490842310143,0.0,-0.5694779328374027,1.0699202512953208
1.712000,0.5,-0.04178210084087777,0.3660707992652439,0.000000,1.570796,0.000000,0.0,-0.024535230015016653,-0.013588185320520266,0.0,-0.6187433030422399,1.159906129152146
1.720000,0.5,-0.04199870796397744,0.36600017062817636,0.000000,1.570796,0.000000,0.0,-0.029682237920173927,-0.0039489927758757926,0.0,-0.668008673247077,1.249892007008971
1.728000,0.5,-0.042256728751750273,0.3660065472498083,0.000000,1.570796,0.000000,0.0,-0.03471853939042261,0.0052835238759809874,0.0,-0.5903765683342286,1.0566970904549131
1.736000,0.5,-0.04255253363967758,0.36608055248474075,0.000000,1.570796,0.000000,0.0,-0.0391282479185569,0.012958126985909195,0.0,-0.5120505636993443,0.861953687027137
1.744000,0.5,-0.04288110976368164,0.36620972275564306,0.000000,1.570796,0.000000,0.0,-0.042911348409612124,0.019074782868415192,0.0,-0.43372455906446017,0.6672102835993609
1.752000,0.5,-0.04323744425946583,0.36638159448469565,0.000000,1.570796,0.000000,0.0,-0.046067840863588276,0.02363349152349898,0.0,-0.35539855442957596,0.47246688017158456
1.760000,0.5,-0.043616524262733505,0.36658370409407925,0.000000,1.570796,0.000000,0.0,-0.04859772528048535,0.026634252951160557,0.0,-0.27707254979469176,0.2777234767438086
1.768000,0.5,-0.04401333690918805,0.36680358800597446,0.000000,1.570796,0.000000,0.0,-0.05050100166030335,0.028077067151399914,0.0,-0.1987465451598075,0.08298007331603241
1.776000,0.5,-0.04442286933453282,0.36702878264256183,0.000000,1.570796,0.000000,0.0,-0.05177767000304226,0.02796193412421706,0.0,-0.12042054052492324,-0.11176333011174377
1.784000,0.5,-0.044840108674471184,0.36724682442602213,0.000000,1.570796,0.000000,0.0,-0.05242773030870211,0.026288853869611994,0.0,-0.042094535890039086,-0.3065067335395202
1.792000,0.5,-0.04526004206470651,0.3674452497785359,0.000000,1.570796,0.000000,0.0,-0.052451182577282894,0.02305782638758473,0.0,0.03623146874484506,-0.5012501369672964
1.800000,0.5,-0.045677656640942164,0.36761159512228364,0.000000,1.570796,0.000000,0.0,-0.05184802680878459,0.01826885167813526,0.0,0.11455747337972932,-0.6959935403950723
1.808000,0.5,-0.046087939538881524,0.36773339687944623,0.000000,1.570796,0.000000,0.0,-0.05061826300320723,0.011921929741263562,0.0,0.19288347801461347,-0.8907369438228483
1.816000,0.5,-0.04648587789422794,0.3677981914722041,0.000000,1.570796,0.000000,0.0,-0.04876189116055078,0.004017060576969683,0.0,0.27120948264949774,-1.0854803472506247
1.824000,0.5,-0.04686646197957317,0.36779353366527395,0.000000,1.570796,0.000000,0.0,-0.04628549931824471,-0.005407233145481416,0.0,0.3403114342478953,-1.2262873320994894
1.832000,0.5,-0.0472255715621039,0.36771217942425505,0.000000,1.570796,0.000000,0.0,-0.043456340549526275,-0.014788224762701037,0.0,0.36697825793171046,-1.118960572205414
1.840000,0.5,-0.047561194536127005,0.36755921170661515,0.000000,1.570796,0.000000,0.0,-0.04041384719133733,-0.023310602300768056,0.0,0.3936450816155257,-1.0116338123113384
1.848000,0.5,-0.04787162422492671,0.36734149942498723,0.000000,1.570796,0.000000,0.0,-0.03715801924367786,-0.030974365759682466,0.0,0.4203119052993409,-0.9043070524172631
1.856000,0.5,-0.04815515395178726,0.36706591149200457,0.000000,1.570796,0.000000,0.0,-0.033688856706547865,-0.037779515139444275,0.0,0.4469787289831561,-0.7969802925231875
1.864000,0.5,-0.04841007703999289,0.3667393168203005,0.000000,1.570796,0.000000,0.0,-0.030006359579947354,-0.04372605044005348,0.0,0.47364555266697134,-0.6896535326291121
1.872000,0.5,-0.04863468681282783,0.36636858432250813,0.000000,1.570796,0.000000,0.0,-0.02611052786387632,-0.04881397166151009,0.0,0.5003123763507866,-0.5823267727350366
1.880000,0.5,-0.048827276593576316,0.36596058291126077,0.000000,1.570796,0.000000,0.0,-0.022001361558334764,-0.05304327880381407,0.0,0.5269792000346017,-0.47500001284096105
1.888000,0.5,-0.0489861397055226,0.3655221814991915,0.000000,1.570796,0.000000,0.0,-0.017678860663322686,-0.05641397186696547,0.0,0.553646023718417,-0.3676732529468856
1.896000,0.5,-0.0491095694719509,0.3650602489989337,0.000000,1.570796,0.000000,0.0,-0.013143025178840086,-0.05892605085096425,0.0,0.5803128474022322,-0.2603464930528101
1.904000,0.5,-0.04919585921614546,0.36458165432312045,0.000000,1.570796,0.000000,0.0,-0.00839385510488696,-0.06057951575581044,0.0,0.6069796710860474,-0.15301973315873463
1.912000,0.5,-0.049243302261390495,0.36409326638438516,0.000000,1.570796,0.000000,0.0,-0.003431350441463317,-0.06137436658150402,0.0,0.6336464947698626,-0.045692973264659154
1.920000,0.5,-0.04925019193097028,0.3636019540953609,0.000000,1.570796,0.000000,0.0,0.0017444888114307028,-0.06131060332804501,0.0,0.6603133184536771,0.06163378662941321
1.928000,0.5,-0.049214821548169016,0.3631145863686809,0.000000,1.570796,0.000000,0.0,0.007133662653795385,-0.06038822599543338,0.0,0.6869801421374924,0.16896054652348869
1.936000,0.5,-0.049136171785641565,0.362637552191415,0.000000,1.570796,0.000000,0.0,0.012397974314933911,-0.05884337254003919,0.0,0.602711575851364,0.19882927444803128
1.944000,0.5,-0.04901896937423765,0.3621732285003806,0.000000,1.570796,0.000000,0.0,0.016744109343194306,-0.05722995615561064,0.0,0.4838221812137334,0.20452482165910707
1.952000,0.5,-0.048870802343236056,0.3617219943979324,0.000000,1.570796,0.000000,0.0,0.020139129214353655,-0.055570975393493476,0.0,0.36493278657610273,0.21022036887018292
1.960000,0.5,-0.048699279613893594,0.3612842143990919,0.000000,1.570796,0.000000,0.0,0.022583033928411954,-0.05386643025368771,0.0,0.24604339193847202,0.21591591608125874
1.968000,0.5,-0.048512010107467064,0.3608602530188806,0.000000,1.570796,0.000000,0.0,0.024075823485369206,-0.052116320736193336,0.0,0.12715399730084131,0.22161146329233455
1.976000,0.5,-0.04831660274521329,0.36045047477232,0.000000,1.570796,0.000000,0.0,0.02461749788522542,-0.050320646841010355,0.0,0.008264602663210718,0.22730701050341037
1.984000,0.5,-0.04812066644838906,0.3600552441744316,0.000000,1.570796,0.000000,0.0,0.024208057127980572,-0.04847940856813877,0.0,-0.1106247919744201,0.2330025577144862
1.992000,0.5,-0.04793181013825121,0.3596749257402369,0.000000,1.570796,0.000000,0.0,0.022847501213634692,-0.04659260591757857,0.0,-0.2295141866120507,0.238698104925562
2.000000,0.5,-0.04775764273605651,0.3593098839847575,0.000000,1.570796,0.000000,0.0,0.020535830142187766,-0.044660238889329774,0.0,-0.3484035812496815,0.24439365213663783
2.008000,0.5,-0.047605773163061804,0.35896048342301484,0.000000,1.570796,0.000000,0.0,0.017273043913639777,-0.042682307483392364,0.0,-0.4672929758873121,0.2500891993477137
2.016000,0.5,-0.04748381034052388,0.35862708857003045,0.000000,1.570796,0.000000,0.0,0.013059142527990758,-0.04065881169976635,0.0,-0.5861823705249427,0.25578474655878947
2.024000,0.5,-0.047399363189699555,0.35831006394082576,0.000000,1.570796,0.000000,0.0,0.007894125985240696,-0.03858975153845173,0.0,-0.7050717651625735,0.26148029376986526
2.032000,0.5,-0.04736004063184564,0.35800977405042234,0.000000,1.570796,0.000000,0.0,0.001777994285389578,-0.0364751269994485,0.0,-0.8239611598002039,0.2671758409809411
2.040000,0.5,-0.04737345158821892,0.35772658341384167,0.000000,1.570796,0.000000,0.0,-0.005289252571562569,-0.034314938082756666,0.0,-0.9428505544378349,0.27287138819201695
2.048000,0.5,-0.047446895175461315,0.35746082159125336,0.000000,1.570796,0.000000,0.0,-0.013089195638636187,-0.032133828714312904,0.0,-0.9590798979724469,0.26698393525121095
2.056000,0.5,-0.04758150871153336,0.35721212291508897,0.000000,1.570796,0.000000,0.0,-0.02046536515785653,-0.030062281873994425,0.0,-0.8849624818326369,0.2509027748284085
2.064000,0.5,-0.0477727598464427,0.35697948201651375,0.000000,1.570796,0.000000,0.0,-0.027248595347958388,-0.028119384317058366,0.0,-0.810845065692827,0.23482161440560606
2.072000,0.5,-0.048015905065556384,0.35676186970126034,0.000000,1.570796,0.000000,0.0,-0.033438886208941775,-0.026305136043504727,0.0,-0.7367276495530171,0.21874045398280356
2.080000,0.5,-0.048306200854241456,0.3565582567750619,0.000000,1.570796,0.000000,0.0,-0.039036237740806674,-0.024619537053333505,0.0,-0.6626102334132071,0.20265929356000112
2.088000,0.5,-0.04863890369786497,0.3563676140436514,0.000000,1.570796,0.000000,0.0,-0.0440406499435531,-0.023062587346544705,0.0,-0.5884928172733972,0.18657813313719865
2.096000,0.5,-0.04900927008179399,0.3561889123127615,0.000000,1.570796,0.000000,0.0,-0.04845212281718104,-0.021634286923138322,0.0,-0.5143754011335873,0.17049697271439618
2.104000,0.5,-0.04941255649139555,0.35602112238812544,0.000000,1.570796,0.000000,0.0,-0.052270656361690496,-0.020334635783114362,0.0,-0.44025798499377733,0.15441581229159373
2.112000,0.5,-0.04984401941203672,0.355863215075476,0.000000,1.570796,0.000000,0.0,-0.05549625057708147,-0.01916363392647282,0.0,-0.3661405688539674,0.13833465186879126
2.120000,0.5,-0.050298915329084544,0.3557141611805462,0.000000,1.570796,0.000000,0.0,-0.058128905463353975,-0.018121281353213704,0.0,-0.29202315271415746,0.1222534914459888
2.128000,0.5,-0.050772500727906074,0.35557293150906893,0.000000,1.570796,0.000000,0.0,-0.060168621020508004,-0.017207578063337,0.0,-0.21790573657434753,0.10617233102318632
2.136000,0.5,-0.051260032093868355,0.35543849686677714,0.000000,1.570796,0.000000,0.0,-0.06161539724854355,-0.01642252405684272,0.0,-0.1437883204345376,0.09009117060038385
2.144000,0.5,-0.05175676591233845,0.3553098280594037,0.000000,1.570796,0.000000,0.0,-0.0624692341474606,-0.015766119333730857,0.0,-0.06967090429472755,0.07401001017758141
2.152000,0.5,-0.052257959010704874,0.3551858969726813,0.000000,1.570796,0.000000,0.0,-0.06273124226570205,-0.015234857120300814,0.0,0.002042534353734593,0.06551987840172277
2.160000,0.5,-0.05275917503213411,0.35506664432311075,0.000000,1.570796,0.000000,0.0,-0.06250169364197898,-0.014512108861966293,0.0,0.055344621577031766,0.11516718618190716
2.168000,0.5,-0.053256848997782436,0.35495476237345586,0.000000,1.570796,0.000000,0.0,-0.06184572832046955,-0.013392182141390296,0.0,0.10864670880032892,0.16481449396209155
2.176000,0.5,-0.05374756957406753,0.35485342855141455,0.000000,1.570796,0.000000,0.0,-0.06076334630117372,-0.011875076958572825,0.0,0.16194879602362608,0.21446180174227597
2.184000,0.5,-0.05422792542740712,0.3547658202846846,0.000000,1.570796,0.000000,0.0,-0.05925454758409152,-0.009960793313513877,0.0,0.21525088324692326,0.26410910952246036
2.192000,0.5,-0.054694505224218905,0.35469511500096423,0.000000,1.570796,0.000000,0.0,-0.05731933216922294,-0.007649331206213456,0.0,0.2685529704702204,0.31375641730264475
2.200000,0.5,-0.05514389763092059,0.35464449012795124,0.000000,1.570796,0.000000,0.0,-0.05495770005656799,-0.004940690636671557,0.0,0.3218550576935176,0.36340372508282914
2.208000,0.5,-0.055572691313929896,0.35461712309334353,0.000000,1.570796,0.000000,0.0,-0.05216965124612666,-0.001834871604888183,0.0,0.37515714491681473,0.41305103286301353
2.216000,0.5,-0.05597747493966452,0.354616191324839,0.000000,1.570796,0.000000,0.0,-0.04895518573789895,0.0016681258891366665,0.0,0.4284592321401119,0.4626983406431979
2.224000,0.5,-0.056354837174542184,0.3546448722501357,0.000000,1.570796,0.000000,0.0,-0.045314303531884856,0.00556830184540299,0.0,0.48176131936340905,0.5123456484233824
2.232000,0.5,-0.05670136668498058,0.35470634329693146,0.000000,1.570796,0.000000,0.0,-0.041247004628084394,0.00986565626391079,0.0,0.5350634065867063,0.5619929562035668
2.240000,0.5,-0.05701365213739744,0.3548037818929242,0.000000,1.570796,0.000000,0.0,-0.03675328902649755,0.014560189144660065,0.0,0.5883654938100035,0.6116402639837513
2.248000,0.5,-0.05728828219821045,0.354940365465812,0.000000,1.570796,0.000000,0.0,-0.031833156727124334,0.01965190048765082,0.0,0.6416675810333006,0.6612875717639355
2.256000,0.5,-0.05752184553383734,0.35511927144329264,0.000000,1.570796,0.000000,0.0,-0.02648660772996473,0.025140790292883047,0.0,0.6949696682565978,0.7109348795441199
2.264000,0.5,-0.05771120992064539,0.35534338204890753,0.000000,1.570796,0.000000,0.0,-0.020883695337739375,0.030846999541112387,0.0,0.6791995115904608,0.6875270578783838
2.272000,0.5,-0.05785717358919646,0.3556114224117736,0.000000,1.570796,0.000000,0.0,-0.015685783077535508,0.03607102876103875,0.0,0.6202785534605051,0.618480247103207
2.280000,0.5,-0.057963439430326065,0.3559190455104543,0.000000,1.570796,0.000000,0.0,-0.010959238482371285,0.04074268349476371,0.0,0.5613575953305494,0.5494334363280302
2.288000,0.5,-0.058033778385354506,0.35626183234905995,0.000000,1.570796,0.000000,0.0,-0.0067040615522467074,0.04486196374228724,0.0,0.5024366372005937,0.48038662555285344
2.296000,0.5,-0.05807196139560211,0.35663536393170103,0.000000,1.570796,0.000000,0.0,-0.002920252287161777,0.04842886950360937,0.0,0.44351567907063805,0.41133981477767667
2.304000,0.5,-0.05808175940238921,0.3570352212624878,0.000000,1.570796,0.000000,0.0,0.0003921893128835084,0.05144340077873009,0.0,0.3845947209406823,0.34229300400249996
2.312000,0.5,-0.05806694334703608,0.3574569853455308,0.000000,1.570796,0.000000,0.0,0.0032332632478889976,0.053905557567649254,0.0,0.3256737628107298,0.2732461932273269
2.320000,0.5,-0.05803128417086309,0.3578962371849403,0.000000,1.570796,0.000000,0.0,0.005602969517855017,0.05581533987036716,0.0,0.2667528046807741,0.2041993824521502
2.328000,0.5,-0.05797855281519051,0.35834855778482677,0.000000,1.570796,0.000000,0.0,0.007501308122781387,0.05717274768688366,0.0,0.20783184655081843,0.13515257167697337
2.336000,0.5,-0.05791252022133869,0.3588095281493006,0.000000,1.570796,0.000000,0.0,0.008928279062668118,0.05797778101719874,0.0,0.14891088842086275,0.06610576090179665
2.344000,0.5,-0.05783695733062793,0.3592747292824721,0.000000,1.570796,0.000000,0.0,0.0098838823375152,0.058230439861312405,0.0,0.08998993029090707,-0.002941049873380175
2.352000,0.5,-0.05775563508437855,0.3597397421884517,0.000000,1.570796,0.000000,0.0,0.010368117947322633,0.057930724219224655,0.0,0.03106897216095139,-0.07198786064855689
2.360000,0.5,-0.057672324423910876,0.36020014787134985,0.000000,1.570796,0.000000,0.0,0.010380985892090425,0.057078634090935484,0.0,-0.02785198596900429,-0.14103467142373383
2.368000,0.5,-0.057590795331290634,0.3606515287911151,0.000000,1.570796,0.000000,0.0,0.00992560088477543,0.05567889660370632,0.0,-0.08003059990987255,-0.19984878356400362
2.376000,0.5,-0.057513957274046595,0.3610907733905535,0.000000,1.570796,0.000000,0.0,0.009283192096601335,0.0541583267162178,0.0,-0.08057159713365078,-0.1802936883081263
2.384000,0.5,-0.057442275799019116,0.3615184791939401,0.000000,1.570796,0.000000,0.0,0.008636455330637017,0.05279419759077629,0.0,-0.08111259435742901,-0.160738593052249
2.392000,0.5,-0.05737578553003051,0.36193589772737134,0.000000,1.570796,0.000000,0.0,0.007985390586882472,0.05158650922738181,0.0,-0.08165359158120723,-0.14118349779637168
2.400000,0.5,-0.0573145210909031,0.3623442805169437,0.000000,1.570796,0.000000,0.0,0.0073299978653377,0.05053526162603435,0.0,-0.08219458880498547,-0.12162840254049437
2.408000,0.5,-0.05725851710545921,0.36274487908875336,0.000000,1.570796,0.000000,0.0,0.0066702771660027025,0.0496404547867339,0.0,-0.0827355860287637,-0.10207330728461705
2.416000,0.5,-0.05720780819752117,0.36313894496889687,0.000000,1.570796,0.000000,0.0,0.00600622848887748,0.04890208870948047,0.0,-0.08327658325254193,-0.08251821202873974
2.424000,0.5,-0.057162428990911285,0.3635277296834705,0.000000,1.570796,0.000000,0.0,0.005337851833962031,0.048320163394274064,0.0,-0.08381758047632015,-0.06296311677286243
2.432000,0.5,-0.05712241410945188,0.36391248475857074,0.000000,1.570796,0.000000,0.0,0.004665147201256356,0.04789467884111467,0.0,-0.08435857770009839,-0.04340802151698511
2.440000,0.5,-0.057087798176965285,0.3642944617202938,0.000000,1.570796,0.000000,0.0,0.003988114590760455,0.04762563505000229,0.0,-0.08489957492387662,-0.0238529262611078
2.448000,0.5,-0.057058615817273825,0.3646749120947362,0.000000,1.570796,0.000000,0.0,0.0033067540024743288,0.04751303202093694,0.0,-0.08544057214765485,-0.004297831005230485
2.456000,0.5,-0.05703490165419981,0.36505508740799425,0.000000,1.570796,0.000000,0.0,0.002621065436397977,0.04755686975391861,0.0,-0.08598156937143307,0.01525726425064683
2.464000,0.5,-0.05701669031156556,0.3654362391861644,0.000000,1.570796,0.000000,0.0,0.001931048892531399,0.04775714824894729,0.0,-0.0865225665952113,0.03481235950652414
2.472000,0.5,-0.05700401641319341,0.3658196189553429,0.000000,1.570796,0.000000,0.0,0.0012367043708745944,0.048113867506023,0.0,-0.08706356381898954,0.05436745476240146
2.480000,0.5,-0.056996888507939776,0.3662064350759684,0.000000,1.570796,0.000000,0.0,0.0005563975233339412,0.04859662420845777,0.0,-0.07898078063776784,0.05964636052949124
2.488000,0.5,-0.05699479770962654,0.36659703932351845,0.000000,1.570796,0.000000,0.0,-1.2822556649481453e-05,0.049044758972244494,0.0,-0.06332423935808768,0.05238733041719006
2.496000,0.5,-0.05699675966263221,0.3669909963602152,0.000000,1.570796,0.000000,0.0,-0.00045679030639546265,0.049434821495132814,0.0,-0.04766769807840752,0.045128300304888895
2.504000,0.5,-0.0570017723483149,0.3673878416081315,0.000000,1.570796,0.000000,0.0,-0.0007755057259040024,0.04976681177712272,0.0,-0.03201115679872736,0.03786927019258773
2.512000,0.5,-0.05700883374803271,0.36778711048934015,0.000000,1.570796,0.000000,0.0,-0.0009689688151751003,0.05004072981821422,0.0,-0.01635461551904721,0.030610240080286552
2.520000,0.5,-0.05701694184314373,0.3681883384259138,0.000000,1.570796,0.000000,0.0,-0.0010371795742087579,0.05025657561840731,0.0,-0.0006980742393670469,0.023351209967985384
2.528000,0.5,-0.05702509461500608,0.36859106083992554,0.000000,1.570796,0.000000,0.0,-0.000980138003004974,0.05041434917770198,0.0,0.014958467040313117,0.016092179855684216
2.536000,0.5,-0.05703229004497785,0.368994813153448,0.000000,1.570796,0.000000,0.0,-0.0007978441015637481,0.05051405049609826,0.0,0.030615008319993267,0.008833149743383048
2.544000,0.5,-0.057037526114417134,0.36939913078855413,0.000000,1.570796,0.000000,0.0,-0.0004902978698850813,0.050555679573596114,0.0,0.04627154959967342,0.00157411963108188
2.552000,0.5,-0.05703980080468204,0.36980354916731656,0.000000,1.570796,0.000000,0.0,-5.749930796897229e-05,0.05053923641019556,0.0,0.06192809087935358,-0.005684910481219288
2.560000,0.5,-0.05703811209713067,0.3702076037118081,0.000000,1.570796,0.000000,0.0,0.0005005515841845776,0.05046472100589661,0.0,0.07758463215903375,-0.012943940593520456
2.568000,0.5,-0.05703145797312112,0.3706108298441018,0.000000,1.570796,0.000000,0.0,0.0011838548065755666,0.050332133360699235,0.0,0.09324117343871388,-0.020202970705821624
2.576000,0.5,-0.05701883641401149,0.3710127629862703,0.000000,1.570796,0.000000,0.0,0.0019924103592040016,0.05014147347460346,0.0,0.10889771471839405,-0.027462000818122806
2.584000,0.5,-0.0569992454211857,0.3714129385659537,0.000000,1.570796,0.000000,0.0,0.002925986554898961,0.049892805758022934,0.0,0.12276726449883633,-0.03422423664861354
2.592000,0.5,-0.05697233004680022,0.37181107189476137,0.000000,1.570796,0.000000,0.0,0.0037502232267655343,0.04965128373342664,0.0,0.08329190346780664,-0.026156269500458917
2.600000,0.5,-0.056940083990592784,0.37220753122232103,0.000000,1.570796,0.000000,0.0,0.004258657010383868,0.049474305446015596,0.0,0.04381654243677695,-0.018088302352304287
2.608000,0.5,-0.056905033675669396,0.37260283289853013,0.000000,1.570796,0.000000,0.0,0.004451287905753966,0.04936187089578978,0.0,0.004341181405747269,-0.010020335204149664
2.616000,0.5,-0.05686970552513605,0.37299749327328613,0.000000,1.570796,0.000000,0.0,0.004328115912875826,0.04931398008274919,0.0,-0.035134179625282425,-0.001952368055995031
2.624000,0.5,-0.05683662596209872,0.37339202869648663,0.000000,1.570796,0.000000,0.0,0.0038891410317494473,0.04933063300689385,0.0,-0.07460954065631212,0.006115599092159592
2.632000,0.5,-0.05680832140966339,0.3737869555180289,0.000000,1.570796,0.000000,0.0,0.0031343632623748296,0.049411829668223745,0.0,-0.11408490168734178,0.014183566240314215
2.640000,0.5,-0.05678731829093604,0.3741827900878107,0.000000,1.570796,0.000000,0.0,0.002063782604751977,0.04955757006673888,0.0,-0.15356026271837145,0.02225153338846885
2.648000,0.5,-0.05677614302902268,0.3745800487557293,0.000000,1.570796,0.000000,0.0,0.000677399058880885,0.04976785420243925,0.0,-0.19303562374940117,0.03031950053662348
2.656000,0.5,-0.05677732204702928,0.37497924787168213,0.000000,1.570796,0.000000,0.0,-0.0010247873752384454,0.05004268207532486,0.0,-0.2325109847804309,0.038387467684778104
2.664000,0.5,-0.056793381768061826,0.37538090378556693,0.000000,1.570796,0.000000,0.0,-0.003042776697606017,0.0503820536853957,0.0,-0.27198634581146053,0.04645543483293273
2.672000,0.5,-0.0568268486152263,0.375785532847281,0.000000,1.570796,0.000000,0.0,-0.005376568908221817,0.050785969032651784,0.0,-0.3114617068424903,0.05452340198108735
2.680000,0.5,-0.0568802490116287,0.37619365140672184,0.000000,1.570796,0.000000,0.0,-0.008026164007085864,0.051254428117093104,0.0,-0.35093706787351986,0.06259136912924199
2.688000,0.5,-0.05695610938037501,0.37660577581378696,0.000000,1.570796,0.000000,0.0,-0.01099156199419814,0.05178743093871965,0.0,-0.39041242890454964,0.07065933627739661
2.696000,0.5,-0.057056739459058994,0.3770223629239171,0.000000,1.570796,0.000000,0.0,-0.014120142509245676,0.052343073148069144,0.0,-0.35822333286210534,0.059050685921344
2.704000,0.5,-0.05718014904962201,0.37744268897676964,0.000000,1.570796,0.000000,0.0,-0.016605418111187646,0.05269992077986312,0.0,-0.2630955676233868,0.03016122202714916
2.712000,0.5,-0.057320396756512904,0.3778649453478319,0.000000,1.570796,0.000000,0.0,-0.01832967159121987,0.05282565270050353,0.0,-0.16796780238466835,0.001271758132954312
2.720000,0.5,-0.057471394402756434,0.37828728311141463,0.000000,1.570796,0.000000,0.0,-0.01929290294934234,0.05272026890999039,0.0,-0.07284003714594983,-0.02761770576124052
2.728000,0.5,-0.05762705381137729,0.3787078533418286,0.000000,1.570796,0.000000,0.0,-0.019495112185555066,0.052383769408323684,0.0,0.022287728092768633,-0.056507169655435355
2.736000,0.5,-0.05778128680540021,0.3791248071133847,0.000000,1.570796,0.000000,0.0,-0.01893629929985805,0.05181615419550342,0.0,0.11741549333148715,-0.08539663354963022
2.744000,0.5,-0.05792800520784993,0.37953629550039364,0.000000,1.570796,0.000000,0.0,-0.017616464292251274,0.0510174232715296,0.0,0.21254325857020562,-0.11428609744382505
2.752000,0.5,-0.05806112084175114,0.37994046957716615,0.000000,1.570796,0.000000,0.0,-0.01553560716273475,0.04998757663640222,0.0,0.3076710238089241,-0.1431755613380199
2.760000,0.5,-0.058174545530128595,0.38033548041801296,0.000000,1.570796,0.000000,0.0,-0.012693727911308482,0.048726614290121276,0.0,0.40279878904764255,-0.17206502523221473
2.768000,0.5,-0.05826219109600699,0.380719479097245,0.000000,1.570796,0.000000,0.0,-0.009090826537972461,0.04723453623268678,0.0,0.497926554286361,-0.20095448912640956
2.776000,0.5,-0.058317969362411064,0.3810906166891729,0.000000,1.570796,0.000000,0.0,-0.004726903042726702,0.04551134246409872,0.0,0.5930543195250796,-0.2298439530206044
2.784000,0.5,-0.05833579215236552,0.3814470442681075,0.000000,1.570796,0.000000,0.0,0.0003980425744288252,0.043557032984357105,0.0,0.6881820847637982,-0.25873341691479923
2.792000,0.5,-0.05830957128889511,0.38178691290835953,0.000000,1.570796,0.000000,0.0,0.0062840103134940775,0.04137160779346193,0.0,0.7833098500025165,-0.2876228808089941
2.800000,0.5,-0.05823321859502452,0.3821083736842398,0.000000,1.570796,0.000000,0.0,0.012931000174469083,0.038955066891413204,0.0,0.8784376152412349,-0.3165123447031889
