t,x,y,z,roll,pitch,yaw,vx,vy,vz,ax,ay,az
0.000000,0.185035,-0.059245,0.000000,0.000000,3.141593,0.000000,0.000000,0.000000,0.000000,0.000000,0.000000,0.000000
0.008000,0.184520,-0.059082,0.000000,0.000000,3.141593,0.000000,-0.066033,0.019676,0.000000,-0.416537,-0.179616,0.000000
0.016000,0.183979,-0.058930,0.000000,0.000000,3.141593,0.000000,-0.069271,0.018272,0.000000,-0.392988,-0.171247,0.000000
0.024000,0.183413,-0.058790,0.000000,0.000000,3.141593,0.000000,-0.072321,0.016936,0.000000,-0.369440,-0.162878,0.000000
0.032000,0.182822,-0.058659,0.000000,0.000000,3.141593,0.000000,-0.075182,0.015666,0.000000,-0.345892,-0.154509,0.000000
0.040000,0.182210,-0.058539,0.000000,0.000000,3.141593,0.000000,-0.077855,0.014464,0.000000,-0.322344,-0.146140,0.000000
0.048000,0.181577,-0.058428,0.000000,0.000000,3.141593,0.000000,-0.080340,0.013328,0.000000,-0.298796,-0.137770,0.000000
0.056000,0.180925,-0.058325,0.000000,0.000000,3.141593,0.000000,-0.082636,0.012259,0.000000,-0.275247,-0.129401,0.000000
0.064000,0.180256,-0.058231,0.000000,0.000000,3.141593,0.000000,-0.084744,0.011258,0.000000,-0.251699,-0.121032,0.000000
0.072000,0.179570,-0.058145,0.000000,0.000000,3.141593,0.000000,-0.086663,0.010323,0.000000,-0.228151,-0.112663,0.000000
0.080000,0.178869,-0.058066,0.000000,0.000000,3.141593,0.000000,-0.088394,0.009455,0.000000,-0.204603,-0.104294,0.000000
0.088000,0.178156,-0.057993,0.000000,0.000000,3.141593,0.000000,-0.089937,0.008654,0.000000,-0.181055,-0.095925,0.000000
0.096000,0.177431,-0.057927,0.000000,0.000000,3.141593,0.000000,-0.091291,0.007920,0.000000,-0.157506,-0.087556,0.000000
0.104000,0.176696,-0.057867,0.000000,0.000000,3.141593,0.000000,-0.092457,0.007253,0.000000,-0.133958,-0.079187,0.000000
0.112000,0.175952,-0.057811,0.000000,0.000000,3.141593,0.000000,-0.093434,0.006653,0.000000,-0.110410,-0.070818,0.000000
0.120000,0.175201,-0.057760,0.000000,0.000000,3.141593,0.000000,-0.094223,0.006120,0.000000,-0.086862,-0.062449,0.000000
0.128000,0.174445,-0.057713,0.000000,0.000000,3.141593,0.000000,-0.094824,0.005654,0.000000,-0.063314,-0.054079,0.000000
0.136000,0.173685,-0.057669,0.000000,0.000000,3.141593,0.000000,-0.095236,0.005255,0.000000,-0.039765,-0.045710,0.000000
0.144000,0.172922,-0.057629,0.000000,0.000000,3.141593,0.000000,-0.095460,0.004923,0.000000,-0.016217,-0.037341,0.000000
0.152000,0.172158,-0.057590,0.000000,0.000000,3.141593,0.000000,-0.095496,0.004657,0.000000,0.007331,-0.028972,0.000000
0.160000,0.171394,-0.057554,0.000000,0.000000,3.141593,0.000000,-0.095343,0.004459,0.000000,0.030879,-0.020603,0.000000
0.168000,0.170633,-0.057519,0.000000,0.000000,3.141593,0.000000,-0.095002,0.004328,0.000000,0.054427,-0.012234,0.000000
0.176000,0.169875,-0.057485,0.000000,0.000000,3.141593,0.000000,-0.094472,0.004263,0.000000,0.077976,-0.003865,0.000000
0.184000,0.169122,-0.057450,0.000000,0.000000,3.141593,0.000000,-0.093754,0.004266,0.000000,0.101524,0.004504,0.000000
0.192000,0.168375,-0.057416,0.000000,0.000000,3.141593,0.000000,-0.092848,0.004335,0.000000,0.125072,0.012873,0.000000
0.200000,0.167637,-0.057381,0.000000,0.000000,3.141593,0.000000,-0.091753,0.004472,0.000000,0.148620,0.021242,0.000000
0.208000,0.166908,-0.057344,0.000000,0.000000,3.141593,0.000000,-0.090470,0.004675,0.000000,0.172169,0.029612,0.000000
0.216000,0.166190,-0.057306,0.000000,0.000000,3.141593,0.000000,-0.088998,0.004946,0.000000,0.195717,0.037981,0.000000
0.224000,0.165484,-0.057265,0.000000,0.000000,3.141593,0.000000,-0.087338,0.005283,0.000000,0.219265,0.046350,0.000000
0.232000,0.164793,-0.057221,0.000000,0.000000,3.141593,0.000000,-0.085490,0.005687,0.000000,0.242813,0.054719,0.000000
0.240000,0.164117,-0.057174,0.000000,0.000000,3.141593,0.000000,-0.083453,0.006159,0.000000,0.266361,0.063088,0.000000
0.248000,0.163458,-0.057122,0.000000,0.000000,3.141593,0.000000,-0.081228,0.006697,0.000000,0.289910,0.071457,0.000000
0.256000,0.162818,-0.057067,0.000000,0.000000,3.141593,0.000000,-0.078815,0.007302,0.000000,0.313458,0.079826,0.000000
0.264000,0.162198,-0.057005,0.000000,0.000000,3.141593,0.000000,-0.076213,0.007974,0.000000,0.337006,0.088195,0.000000
0.272000,0.161599,-0.056939,0.000000,0.000000,3.141593,0.000000,-0.073423,0.008713,0.000000,0.360554,0.096564,0.000000
0.280000,0.161023,-0.056866,0.000000,0.000000,3.141593,0.000000,-0.070444,0.009519,0.000000,0.384102,0.104933,0.000000
0.288000,0.160472,-0.056786,0.000000,0.000000,3.141593,0.000000,-0.067277,0.010392,0.000000,0.407651,0.113302,0.000000
0.296000,0.159947,-0.056699,0.000000,0.000000,3.141593,0.000000,-0.063922,0.011332,0.000000,0.431199,0.121672,0.000000
0.304000,0.159450,-0.056605,0.000000,0.000000,3.141593,0.000000,-0.060378,0.012339,0.000000,0.454747,0.130041,0.000000
0.312000,0.158982,-0.056502,0.000000,0.000000,3.141593,0.000000,-0.056646,0.013412,0.000000,0.478295,0.138410,0.000000
0.320000,0.158544,-0.056390,0.000000,0.000000,3.141593,0.000000,-0.052725,0.014553,0.000000,0.501843,0.146779,0.000000
0.328000,0.158139,-0.056269,0.000000,0.000000,3.141593,0.000000,-0.048616,0.015761,0.000000,0.525392,0.155148,0.000000
0.336000,0.157767,-0.056138,0.000000,0.000000,3.141593,0.000000,-0.044319,0.017036,0.000000,0.548940,0.163517,0.000000
0.344000,0.157430,-0.055996,0.000000,0.000000,3.141593,0.000000,-0.039833,0.018377,0.000000,0.572488,0.171886,0.000000
0.352000,0.157130,-0.055843,0.000000,0.000000,3.141593,0.000000,-0.035159,0.019786,0.000000,0.596036,0.180255,0.000000
0.360000,0.156868,-0.055679,0.000000,0.000000,3.141593,0.000000,-0.030297,0.021261,0.000000,0.619584,0.188624,0.000000
0.368000,0.156646,-0.055503,0.000000,0.000000,3.141593,0.000000,-0.025246,0.022804,0.000000,0.643133,0.196993,0.000000
0.376000,0.156465,-0.055314,0.000000,0.000000,3.141593,0.000000,-0.020006,0.024413,0.000000,0.666681,0.205363,0.000000
0.384000,0.156326,-0.055112,0.000000,0.000000,3.141593,0.000000,-0.014579,0.026090,0.000000,0.690229,0.213732,0.000000
0.392000,0.156232,-0.054897,0.000000,0.000000,3.141593,0.000000,-0.008963,0.027833,0.000000,0.713777,0.222101,0.000000
0.400000,0.156183,-0.054667,0.000000,0.000000,3.141593,0.000000,-0.003269,0.029600,0.000000,0.699466,0.215746,0.000000
0.408000,0.156179,-0.054423,0.000000,0.000000,3.141593,0.000000,0.002213,0.031279,0.000000,0.671019,0.203894,0.000000
0.416000,0.156218,-0.054167,0.000000,0.000000,3.141593,0.000000,0.007468,0.032863,0.000000,0.642572,0.192042,0.000000
0.424000,0.156298,-0.053898,0.000000,0.000000,3.141593,0.000000,0.012494,0.034352,0.000000,0.614125,0.180190,0.000000
0.432000,0.156417,-0.053617,0.000000,0.000000,3.141593,0.000000,0.017294,0.035746,0.000000,0.585678,0.168338,0.000000
0.440000,0.156574,-0.053326,0.000000,0.000000,3.141593,0.000000,0.021865,0.037045,0.000000,0.557231,0.156486,0.000000
0.448000,0.156766,-0.053025,0.000000,0.000000,3.141593,0.000000,0.026209,0.038249,0.000000,0.528784,0.144634,0.000000
0.456000,0.156993,-0.052714,0.000000,0.000000,3.141593,0.000000,0.030326,0.039359,0.000000,0.500337,0.132782,0.000000
0.464000,0.157251,-0.052395,0.000000,0.000000,3.141593,0.000000,0.034215,0.040374,0.000000,0.471890,0.120930,0.000000
0.472000,0.157540,-0.052069,0.000000,0.000000,3.141593,0.000000,0.037876,0.041294,0.000000,0.443443,0.109078,0.000000
0.480000,0.157856,-0.051735,0.000000,0.000000,3.141593,0.000000,0.041310,0.042119,0.000000,0.414996,0.097227,0.000000
0.488000,0.158200,-0.051395,0.000000,0.000000,3.141593,0.000000,0.044516,0.042850,0.000000,0.386549,0.085375,0.000000
0.496000,0.158568,-0.051050,0.000000,0.000000,3.141593,0.000000,0.047495,0.043485,0.000000,0.358103,0.073523,0.000000
0.504000,0.158959,-0.050699,0.000000,0.000000,3.141593,0.000000,0.050246,0.044026,0.000000,0.329656,0.061671,0.000000
0.512000,0.159371,-0.050345,0.000000,0.000000,3.141593,0.000000,0.052769,0.044472,0.000000,0.301209,0.049819,0.000000
0.520000,0.159803,-0.049988,0.000000,0.000000,3.141593,0.000000,0.055065,0.044823,0.000000,0.272762,0.037967,0.000000
0.528000,0.160252,-0.049628,0.000000,0.000000,3.141593,0.000000,0.057133,0.045079,0.000000,0.244315,0.026115,0.000000
0.536000,0.160716,-0.049267,0.000000,0.000000,3.141593,0.000000,0.058974,0.045241,0.000000,0.215868,0.014263,0.000000
0.544000,0.161195,-0.048905,0.000000,0.000000,3.141593,0.000000,0.060587,0.045308,0.000000,0.187421,0.002411,0.000000
0.552000,0.161685,-0.048542,0.000000,0.000000,3.141593,0.000000,0.061973,0.045279,0.000000,0.158974,-0.009441,0.000000
0.560000,0.162186,-0.048181,0.000000,0.000000,3.141593,0.000000,0.063131,0.045157,0.000000,0.130527,-0.021293,0.000000
0.568000,0.162695,-0.047820,0.000000,0.000000,3.141593,0.000000,0.064061,0.044939,0.000000,0.102080,-0.033145,0.000000
0.576000,0.163210,-0.047462,0.000000,0.000000,3.141593,0.000000,0.064764,0.044626,0.000000,0.073633,-0.044997,0.000000
0.584000,0.163730,-0.047106,0.000000,0.000000,3.141593,0.000000,0.065239,0.044219,0.000000,0.045186,-0.056849,0.000000
0.592000,0.164253,-0.046755,0.000000,0.000000,3.141593,0.000000,0.065487,0.043717,0.000000,0.016740,-0.068701,0.000000
0.600000,0.164777,-0.046407,0.000000,0.000000,3.141593,0.000000,0.065507,0.043120,0.000000,-0.011707,-0.080553,0.000000
0.608000,0.165301,-0.046065,0.000000,0.000000,3.141593,0.000000,0.065300,0.042428,0.000000,-0.040154,-0.092405,0.000000
0.616000,0.165822,-0.045729,0.000000,0.000000,3.141593,0.000000,0.064865,0.041641,0.000000,-0.068601,-0.104257,0.000000
0.624000,0.166338,-0.045399,0.000000,0.000000,3.141593,0.000000,0.064202,0.040760,0.000000,-0.097048,-0.116109,0.000000
0.632000,0.166848,-0.045077,0.000000,0.000000,3.141593,0.000000,0.063312,0.039783,0.000000,-0.125495,-0.127960,0.000000
0.640000,0.167350,-0.044763,0.000000,0.000000,3.141593,0.000000,0.062194,0.038712,0.000000,-0.153942,-0.139812,0.000000
0.648000,0.167843,-0.044458,0.000000,0.000000,3.141593,0.000000,0.060849,0.037546,0.000000,-0.182389,-0.151664,0.000000
0.656000,0.168323,-0.044162,0.000000,0.000000,3.141593,0.000000,0.059276,0.036286,0.000000,-0.210836,-0.163516,0.000000
0.664000,0.168791,-0.043877,0.000000,0.000000,3.141593,0.000000,0.057476,0.034930,0.000000,-0.239283,-0.175368,0.000000
0.672000,0.169242,-0.043604,0.000000,0.000000,3.141593,0.000000,0.055447,0.033480,0.000000,-0.267730,-0.187220,0.000000
0.680000,0.169677,-0.043342,0.000000,0.000000,3.141593,0.000000,0.053192,0.031935,0.000000,-0.296177,-0.199072,0.000000
0.688000,0.170093,-0.043093,0.000000,0.000000,3.141593,0.000000,0.050709,0.030295,0.000000,-0.324624,-0.210924,0.000000
0.696000,0.170488,-0.042857,0.000000,0.000000,3.141593,0.000000,0.047998,0.028560,0.000000,-0.353070,-0.222776,0.000000
0.704000,0.170860,-0.042636,0.000000,0.000000,3.141593,0.000000,0.045060,0.026730,0.000000,-0.381517,-0.234628,0.000000
0.712000,0.171208,-0.042430,0.000000,0.000000,3.141593,0.000000,0.041894,0.024806,0.000000,-0.409964,-0.246480,0.000000
0.720000,0.171530,-0.042240,0.000000,0.000000,3.141593,0.000000,0.038500,0.022787,0.000000,-0.438411,-0.258332,0.000000
0.728000,0.171824,-0.042066,0.000000,0.000000,3.141593,0.000000,0.034932,0.020696,0.000000,-0.444179,-0.260349,0.000000
0.736000,0.172089,-0.041908,0.000000,0.000000,3.141593,0.000000,0.031420,0.018632,0.000000,-0.433955,-0.255431,0.000000
0.744000,0.172327,-0.041767,0.000000,0.000000,3.141593,0.000000,0.027989,0.016609,0.000000,-0.423731,-0.250514,0.000000
0.752000,0.172537,-0.041642,0.000000,0.000000,3.141593,0.000000,0.024640,0.014624,0.000000,-0.413507,-0.245596,0.000000
0.760000,0.172721,-0.041533,0.000000,0.000000,3.141593,0.000000,0.021373,0.012679,0.000000,-0.403284,-0.240678,0.000000
0.768000,0.172879,-0.041440,0.000000,0.000000,3.141593,0.000000,0.018187,0.010773,0.000000,-0.393060,-0.235760,0.000000
0.776000,0.173012,-0.041361,0.000000,0.000000,3.141593,0.000000,0.015084,0.008907,0.000000,-0.382836,-0.230842,0.000000
0.784000,0.173121,-0.041297,0.000000,0.000000,3.141593,0.000000,0.012062,0.007080,0.000000,-0.372612,-0.225925,0.000000
0.792000,0.173206,-0.041247,0.000000,0.000000,3.141593,0.000000,0.009122,0.005292,0.000000,-0.362388,-0.221007,0.000000
0.800000,0.173267,-0.041212,0.000000,0.000000,3.141593,0.000000,0.006264,0.003544,0.000000,-0.352164,-0.216089,0.000000
0.808000,0.173306,-0.041191,0.000000,0.000000,3.141593,0.000000,0.003487,0.001835,0.000000,-0.341940,-0.211171,0.000000
0.816000,0.173323,-0.041183,0.000000,0.000000,3.141593,0.000000,0.000793,0.000165,0.000000,-0.331716,-0.206254,0.000000
0.824000,0.173319,-0.041188,0.000000,0.000000,3.141593,0.000000,-0.001820,-0.001465,0.000000,-0.321492,-0.201336,0.000000
0.832000,0.173294,-0.041206,0.000000,0.000000,3.141593,0.000000,-0.004351,-0.003056,0.000000,-0.311268,-0.196418,0.000000
0.840000,0.173249,-0.041237,0.000000,0.000000,3.141593,0.000000,-0.006800,-0.004608,0.000000,-0.301044,-0.191500,0.000000
0.848000,0.173186,-0.041280,0.000000,0.000000,3.141593,0.000000,-0.009168,-0.006120,0.000000,-0.290820,-0.186583,0.000000
0.856000,0.173103,-0.041334,0.000000,0.000000,3.141593,0.000000,-0.011453,-0.007593,0.000000,-0.280596,-0.181665,0.000000
0.864000,0.173003,-0.041401,0.000000,0.000000,3.141593,0.000000,-0.013657,-0.009027,0.000000,-0.270372,-0.176747,0.000000
0.872000,0.172885,-0.041479,0.000000,0.000000,3.141593,0.000000,-0.015779,-0.010421,0.000000,-0.260148,-0.171829,0.000000
0.880000,0.172750,-0.041568,0.000000,0.000000,3.141593,0.000000,-0.017820,-0.011776,0.000000,-0.249925,-0.166911,0.000000
0.888000,0.172600,-0.041667,0.000000,0.000000,3.141593,0.000000,-0.019778,-0.013092,0.000000,-0.239701,-0.161994,0.000000
0.896000,0.172434,-0.041777,0.000000,0.000000,3.141593,0.000000,-0.021655,-0.014368,0.000000,-0.229477,-0.157076,0.000000
0.904000,0.172254,-0.041897,0.000000,0.000000,3.141593,0.000000,-0.023450,-0.015605,0.000000,-0.219253,-0.152158,0.000000
0.912000,0.172059,-0.042027,0.000000,0.000000,3.141593,0.000000,-0.025163,-0.016803,0.000000,-0.209029,-0.147240,0.000000
0.920000,0.171851,-0.042166,0.000000,0.000000,3.141593,0.000000,-0.026794,-0.017961,0.000000,-0.198805,-0.142323,0.000000
0.928000,0.171631,-0.042314,0.000000,0.000000,3.141593,0.000000,-0.028344,-0.019080,0.000000,-0.188581,-0.137405,0.000000
0.936000,0.171398,-0.042471,0.000000,0.000000,3.141593,0.000000,-0.029812,-0.020159,0.000000,-0.178357,-0.132487,0.000000
0.944000,0.171154,-0.042636,0.000000,0.000000,3.141593,0.000000,-0.031198,-0.021200,0.000000,-0.168133,-0.127569,0.000000
0.952000,0.170899,-0.042810,0.000000,0.000000,3.141593,0.000000,-0.032502,-0.022201,0.000000,-0.157909,-0.122652,0.000000
0.960000,0.170634,-0.042991,0.000000,0.000000,3.141593,0.000000,-0.033724,-0.023162,0.000000,-0.147685,-0.117734,0.000000
0.968000,0.170360,-0.043180,0.000000,0.000000,3.141593,0.000000,-0.034865,-0.024084,0.000000,-0.137461,-0.112816,0.000000
0.976000,0.170076,-0.043377,0.000000,0.000000,3.141593,0.000000,-0.035923,-0.024967,0.000000,-0.127237,-0.107898,0.000000
0.984000,0.169785,-0.043580,0.000000,0.000000,3.141593,0.000000,-0.036900,-0.025811,0.000000,-0.117013,-0.102980,0.000000
0.992000,0.169486,-0.043790,0.000000,0.000000,3.141593,0.000000,-0.037796,-0.026615,0.000000,-0.106789,-0.098063,0.000000
1.000000,0.169181,-0.044006,0.000000,0.000000,3.141593,0.000000,-0.038609,-0.027380,0.000000,-0.096566,-0.093145,0.000000
1.008000,0.168869,-0.044227,0.000000,0.000000,3.141593,0.000000,-0.039341,-0.028105,0.000000,-0.086342,-0.088227,0.000000
1.016000,0.168551,-0.044455,0.000000,0.000000,3.141593,0.000000,-0.039991,-0.028791,0.000000,-0.076118,-0.083309,0.000000
1.024000,0.168229,-0.044688,0.000000,0.000000,3.141593,0.000000,-0.040559,-0.029438,0.000000,-0.065894,-0.078392,0.000000
1.032000,0.167903,-0.044926,0.000000,0.000000,3.141593,0.000000,-0.041045,-0.030046,0.000000,-0.055670,-0.073474,0.000000
1.040000,0.167573,-0.045169,0.000000,0.000000,3.141593,0.000000,-0.041449,-0.030614,0.000000,-0.045446,-0.068556,0.000000
1.048000,0.167240,-0.045416,0.000000,0.000000,3.141593,0.000000,-0.041772,-0.031142,0.000000,-0.035222,-0.063638,0.000000
1.056000,0.166904,-0.045667,0.000000,0.000000,3.141593,0.000000,-0.042013,-0.031632,0.000000,-0.024998,-0.058720,0.000000
1.064000,0.166568,-0.045922,0.000000,0.000000,3.141593,0.000000,-0.042172,-0.032082,0.000000,-0.014774,-0.053803,0.000000
1.072000,0.166230,-0.046180,0.000000,0.000000,3.141593,0.000000,-0.042249,-0.032493,0.000000,-0.004550,-0.048885,0.000000
1.080000,0.165892,-0.046441,0.000000,0.000000,3.141593,0.000000,-0.042245,-0.032864,0.000000,0.005674,-0.043967,0.000000
1.088000,0.165554,-0.046706,0.000000,0.000000,3.141593,0.000000,-0.042158,-0.033196,0.000000,0.015898,-0.039049,0.000000
1.096000,0.165218,-0.046973,0.000000,0.000000,3.141593,0.000000,-0.041990,-0.033489,0.000000,0.026122,-0.034132,0.000000
1.104000,0.164883,-0.047241,0.000000,0.000000,3.141593,0.000000,-0.041741,-0.033742,0.000000,0.036346,-0.029214,0.000000
1.112000,0.164550,-0.047512,0.000000,0.000000,3.141593,0.000000,-0.041409,-0.033956,0.000000,0.046570,-0.024296,0.000000
1.120000,0.164220,-0.047785,0.000000,0.000000,3.141593,0.000000,-0.040995,-0.034131,0.000000,0.056793,-0.019378,0.000000
1.128000,0.163894,-0.048058,0.000000,0.000000,3.141593,0.000000,-0.040500,-0.034266,0.000000,0.067017,-0.014461,0.000000
1.136000,0.163572,-0.048333,0.000000,0.000000,3.141593,0.000000,-0.039923,-0.034362,0.000000,0.077241,-0.009543,0.000000
1.144000,0.163256,-0.048608,0.000000,0.000000,3.141593,0.000000,-0.039264,-0.034419,0.000000,0.087465,-0.004625,0.000000
1.152000,0.162944,-0.048883,0.000000,0.000000,3.141593,0.000000,-0.038524,-0.034436,0.000000,0.097689,0.000293,0.000000
1.160000,0.162639,-0.049159,0.000000,0.000000,3.141593,0.000000,-0.037701,-0.034414,0.000000,0.107913,0.005211,0.000000
1.168000,0.162341,-0.049434,0.000000,0.000000,3.141593,0.000000,-0.036797,-0.034353,0.000000,0.118137,0.010128,0.000000
1.176000,0.162051,-0.049708,0.000000,0.000000,3.141593,0.000000,-0.035811,-0.034252,0.000000,0.128361,0.015046,0.000000
1.184000,0.161769,-0.049982,0.000000,0.000000,3.141593,0.000000,-0.034743,-0.034112,0.000000,0.138585,0.019964,0.000000
1.192000,0.161495,-0.050254,0.000000,0.000000,3.141593,0.000000,-0.033594,-0.033933,0.000000,0.148809,0.024882,0.000000
1.200000,0.161231,-0.050525,0.000000,0.000000,3.141593,0.000000,-0.032362,-0.033714,0.000000,0.159033,0.029799,0.000000
1.208000,0.160978,-0.050793,0.000000,0.000000,3.141593,0.000000,-0.031049,-0.033456,0.000000,0.169257,0.034717,0.000000
1.216000,0.160735,-0.051060,0.000000,0.000000,3.141593,0.000000,-0.029654,-0.033159,0.000000,0.179481,0.039635,0.000000
1.224000,0.160503,-0.051324,0.000000,0.000000,3.141593,0.000000,-0.028177,-0.032822,0.000000,0.189705,0.044553,0.000000
1.232000,0.160284,-0.051585,0.000000,0.000000,3.141593,0.000000,-0.026619,-0.032446,0.000000,0.199929,0.049470,0.000000
1.240000,0.160078,-0.051843,0.000000,0.000000,3.141593,0.000000,-0.024979,-0.032030,0.000000,0.210152,0.054388,0.000000
1.248000,0.159885,-0.052097,0.000000,0.000000,3.141593,0.000000,-0.023257,-0.031576,0.000000,0.220376,0.059306,0.000000
1.256000,0.159706,-0.052348,0.000000,0.000000,3.141593,0.000000,-0.021453,-0.031082,0.000000,0.230600,0.064224,0.000000
1.264000,0.159542,-0.052595,0.000000,0.000000,3.141593,0.000000,-0.019567,-0.030548,0.000000,0.240824,0.069142,0.000000
1.272000,0.159393,-0.052837,0.000000,0.000000,3.141593,0.000000,-0.017599,-0.029975,0.000000,0.251048,0.074059,0.000000
1.280000,0.159260,-0.053074,0.000000,0.000000,3.141593,0.000000,-0.015550,-0.029363,0.000000,0.261272,0.078977,0.000000
1.288000,0.159144,-0.053306,0.000000,0.000000,3.141593,0.000000,-0.013419,-0.028712,0.000000,0.271496,0.083895,0.000000
1.296000,0.159046,-0.053533,0.000000,0.000000,3.141593,0.000000,-0.011206,-0.028021,0.000000,0.281720,0.088813,0.000000
1.304000,0.158965,-0.053755,0.000000,0.000000,3.141593,0.000000,-0.008912,-0.027291,0.000000,0.291944,0.093730,0.000000
1.312000,0.158904,-0.053970,0.000000,0.000000,3.141593,0.000000,-0.006535,-0.026521,0.000000,0.302168,0.098648,0.000000
1.320000,0.158861,-0.054179,0.000000,0.000000,3.141593,0.000000,-0.004077,-0.025712,0.000000,0.312392,0.103566,0.000000
1.328000,0.158838,-0.054381,0.000000,0.000000,3.141593,0.000000,-0.001537,-0.024864,0.000000,0.322616,0.108484,0.000000
1.336000,0.158837,-0.054577,0.000000,0.000000,3.141593,0.000000,0.001085,-0.023977,0.000000,0.332840,0.113401,0.000000
1.344000,0.158856,-0.054765,0.000000,0.000000,3.141593,0.000000,0.003789,-0.023050,0.000000,0.343064,0.118319,0.000000
1.352000,0.158897,-0.054945,0.000000,0.000000,3.141593,0.000000,0.006574,-0.022083,0.000000,0.353288,0.123237,0.000000
1.360000,0.158961,-0.055118,0.000000,0.000000,3.141593,0.000000,0.009441,-0.021078,0.000000,0.363511,0.128155,0.000000
1.368000,0.159049,-0.055282,0.000000,0.000000,3.141593,0.000000,0.012390,-0.020033,0.000000,0.373735,0.133073,0.000000
1.376000,0.159160,-0.055438,0.000000,0.000000,3.141593,0.000000,0.015421,-0.018949,0.000000,0.383959,0.137990,0.000000
1.384000,0.159296,-0.055585,0.000000,0.000000,3.141593,0.000000,0.018534,-0.017825,0.000000,0.394183,0.142908,0.000000
1.392000,0.159457,-0.055723,0.000000,0.000000,3.141593,0.000000,0.021728,-0.016662,0.000000,0.404407,0.147826,0.000000
1.400000,0.159644,-0.055852,0.000000,0.000000,3.141593,0.000000,0.025004,-0.015460,0.000000,0.414631,0.152744,0.000000
1.408000,0.159857,-0.055971,0.000000,0.000000,3.141593,0.000000,0.028362,-0.014218,0.000000,0.424855,0.157661,0.000000
1.416000,0.160098,-0.056079,0.000000,0.000000,3.141593,0.000000,0.031802,-0.012937,0.000000,0.435079,0.162579,0.000000
1.424000,0.160366,-0.056178,0.000000,0.000000,3.141593,0.000000,0.035323,-0.011617,0.000000,0.445303,0.167497,0.000000
1.432000,0.160663,-0.056265,0.000000,0.000000,3.141593,0.000000,0.038927,-0.010257,0.000000,0.455527,0.172415,0.000000
1.440000,0.160989,-0.056342,0.000000,0.000000,3.141593,0.000000,0.042600,-0.008861,0.000000,0.455953,0.175231,0.000000
1.448000,0.161344,-0.056407,0.000000,0.000000,3.141593,0.000000,0.046162,-0.007467,0.000000,0.434632,0.173384,0.000000
1.456000,0.161727,-0.056461,0.000000,0.000000,3.141593,0.000000,0.049554,-0.006087,0.000000,0.413311,0.171537,0.000000
1.464000,0.162137,-0.056504,0.000000,0.000000,3.141593,0.000000,0.052775,-0.004722,0.000000,0.391991,0.169690,0.000000
1.472000,0.162571,-0.056537,0.000000,0.000000,3.141593,0.000000,0.055825,-0.003372,0.000000,0.370670,0.167843,0.000000
1.480000,0.163029,-0.056558,0.000000,0.000000,3.141593,0.000000,0.058706,-0.002036,0.000000,0.349350,0.165996,0.000000
1.488000,0.163510,-0.056569,0.000000,0.000000,3.141593,0.000000,0.061415,-0.000716,0.000000,0.328029,0.164149,0.000000
1.496000,0.164012,-0.056570,0.000000,0.000000,3.141593,0.000000,0.063954,0.000590,0.000000,0.306708,0.162302,0.000000
1.504000,0.164533,-0.056560,0.000000,0.000000,3.141593,0.000000,0.066322,0.001881,0.000000,0.285388,0.160455,0.000000
1.512000,0.165072,-0.056540,0.000000,0.000000,3.141593,0.000000,0.068520,0.003157,0.000000,0.264067,0.158608,0.000000
1.520000,0.165629,-0.056509,0.000000,0.000000,3.141593,0.000000,0.070547,0.004419,0.000000,0.242747,0.156761,0.000000
1.528000,0.166201,-0.056469,0.000000,0.000000,3.141593,0.000000,0.072404,0.005665,0.000000,0.221426,0.154913,0.000000
1.536000,0.166787,-0.056419,0.000000,0.000000,3.141593,0.000000,0.074090,0.006897,0.000000,0.200105,0.153066,0.000000
1.544000,0.167386,-0.056359,0.000000,0.000000,3.141593,0.000000,0.075606,0.008114,0.000000,0.178785,0.151219,0.000000
1.552000,0.167996,-0.056289,0.000000,0.000000,3.141593,0.000000,0.076951,0.009317,0.000000,0.157464,0.149372,0.000000
1.560000,0.168616,-0.056210,0.000000,0.000000,3.141593,0.000000,0.078125,0.010504,0.000000,0.136144,0.147525,0.000000
1.568000,0.169245,-0.056121,0.000000,0.000000,3.141593,0.000000,0.079129,0.011677,0.000000,0.114823,0.145678,0.000000
1.576000,0.169882,-0.056023,0.000000,0.000000,3.141593,0.000000,0.079962,0.012835,0.000000,0.093502,0.143831,0.000000
1.584000,0.170524,-0.055916,0.000000,0.000000,3.141593,0.000000,0.080625,0.013979,0.000000,0.072182,0.141984,0.000000
1.592000,0.171171,-0.055799,0.000000,0.000000,3.141593,0.000000,0.081117,0.015107,0.000000,0.050861,0.140137,0.000000
1.600000,0.171822,-0.055674,0.000000,0.000000,3.141593,0.000000,0.081439,0.016221,0.000000,0.029541,0.138290,0.000000
1.608000,0.172474,-0.055540,0.000000,0.000000,3.141593,0.000000,0.081590,0.017320,0.000000,0.008220,0.136443,0.000000
1.616000,0.173127,-0.055397,0.000000,0.000000,3.141593,0.000000,0.081570,0.018404,0.000000,-0.013101,0.134596,0.000000
1.624000,0.173779,-0.055245,0.000000,0.000000,3.141593,0.000000,0.081380,0.019473,0.000000,-0.034421,0.132749,0.000000
1.632000,0.174428,-0.055085,0.000000,0.000000,3.141593,0.000000,0.081020,0.020528,0.000000,-0.055742,0.130902,0.000000
1.640000,0.175075,-0.054917,0.000000,0.000000,3.141593,0.000000,0.080489,0.021568,0.000000,-0.077062,0.129054,0.000000
1.648000,0.175716,-0.054740,0.000000,0.000000,3.141593,0.000000,0.079787,0.022593,0.000000,-0.098383,0.127207,0.000000
1.656000,0.176351,-0.054556,0.000000,0.000000,3.141593,0.000000,0.078914,0.023603,0.000000,-0.119704,0.125360,0.000000
1.664000,0.176978,-0.054363,0.000000,0.000000,3.141593,0.000000,0.077871,0.024598,0.000000,-0.141024,0.123513,0.000000
1.672000,0.177596,-0.054162,0.000000,0.000000,3.141593,0.000000,0.076658,0.025579,0.000000,-0.162345,0.121666,0.000000
1.680000,0.178204,-0.053954,0.000000,0.000000,3.141593,0.000000,0.075274,0.026545,0.000000,-0.183666,0.119819,0.000000
1.688000,0.178800,-0.053737,0.000000,0.000000,3.141593,0.000000,0.073719,0.027496,0.000000,-0.204986,0.117972,0.000000
1.696000,0.179383,-0.053514,0.000000,0.000000,3.141593,0.000000,0.071994,0.028433,0.000000,-0.226307,0.116125,0.000000
1.704000,0.179952,-0.053282,0.000000,0.000000,3.141593,0.000000,0.070098,0.029354,0.000000,-0.247627,0.114278,0.000000
1.712000,0.180504,-0.053044,0.000000,0.000000,3.141593,0.000000,0.068032,0.030261,0.000000,-0.268948,0.112431,0.000000
1.720000,0.181040,-0.052798,0.000000,0.000000,3.141593,0.000000,0.065795,0.031153,0.000000,-0.290269,0.110584,0.000000
1.728000,0.181556,-0.052546,0.000000,0.000000,3.141593,0.000000,0.063388,0.032030,0.000000,-0.311589,0.108737,0.000000
1.736000,0.182053,-0.052286,0.000000,0.000000,3.141593,0.000000,0.060810,0.032893,0.000000,-0.332910,0.106890,0.000000
1.744000,0.182529,-0.052019,0.000000,0.000000,3.141593,0.000000,0.058061,0.033741,0.000000,-0.354230,0.105042,0.000000
1.752000,0.182982,-0.051746,0.000000,0.000000,3.141593,0.000000,0.055142,0.034574,0.000000,-0.375551,0.103195,0.000000
1.760000,0.183411,-0.051466,0.000000,0.000000,3.141593,0.000000,0.052052,0.035392,0.000000,-0.396872,0.101348,0.000000
1.768000,0.183814,-0.051180,0.000000,0.000000,3.141593,0.000000,0.048792,0.036195,0.000000,-0.418192,0.099501,0.000000
1.776000,0.184191,-0.050887,0.000000,0.000000,3.141593,0.000000,0.045361,0.036984,0.000000,-0.439513,0.097654,0.000000
1.784000,0.184540,-0.050588,0.000000,0.000000,3.141593,0.000000,0.041760,0.037758,0.000000,-0.460833,0.095807,0.000000
1.792000,0.184859,-0.050283,0.000000,0.000000,3.141593,0.000000,0.037988,0.038517,0.000000,-0.482154,0.093960,0.000000
1.800000,0.185147,-0.049972,0.000000,0.000000,3.141593,0.000000,0.034046,0.039261,0.000000,-0.503475,0.092113,0.000000
1.808000,0.185403,-0.049655,0.000000,0.000000,3.141593,0.000000,0.029932,0.039990,0.000000,-0.524795,0.090266,0.000000
1.816000,0.185625,-0.049332,0.000000,0.000000,3.141593,0.000000,0.025649,0.040705,0.000000,-0.546116,0.088419,0.000000
1.824000,0.185813,-0.049004,0.000000,0.000000,3.141593,0.000000,0.021195,0.041405,0.000000,-0.567436,0.086572,0.000000
1.832000,0.185964,-0.048670,0.000000,0.000000,3.141593,0.000000,0.016570,0.042090,0.000000,-0.588757,0.084725,0.000000
1.840000,0.186078,-0.048330,0.000000,0.000000,3.141593,0.000000,0.011941,0.042695,0.000000,-0.564796,0.065012,0.000000
1.848000,0.186156,-0.047987,0.000000,0.000000,3.141593,0.000000,0.007534,0.043130,0.000000,-0.536896,0.043745,0.000000
1.856000,0.186199,-0.047641,0.000000,0.000000,3.141593,0.000000,0.003351,0.043395,0.000000,-0.508997,0.022478,0.000000
1.864000,0.186210,-0.047293,0.000000,0.000000,3.141593,0.000000,-0.000610,0.043490,0.000000,-0.481097,0.001211,0.000000
1.872000,0.186190,-0.046945,0.000000,0.000000,3.141593,0.000000,-0.004347,0.043414,0.000000,-0.453198,-0.020056,0.000000
1.880000,0.186141,-0.046599,0.000000,0.000000,3.141593,0.000000,-0.007861,0.043169,0.000000,-0.425298,-0.041322,0.000000
1.888000,0.186065,-0.046255,0.000000,0.000000,3.141593,0.000000,-0.011152,0.042753,0.000000,-0.397398,-0.062589,0.000000
1.896000,0.185963,-0.045915,0.000000,0.000000,3.141593,0.000000,-0.014219,0.042167,0.000000,-0.369499,-0.083856,0.000000
1.904000,0.185838,-0.045581,0.000000,0.000000,3.141593,0.000000,-0.017063,0.041411,0.000000,-0.341599,-0.105123,0.000000
1.912000,0.185691,-0.045253,0.000000,0.000000,3.141593,0.000000,-0.019685,0.040485,0.000000,-0.313700,-0.126390,0.000000
1.920000,0.185524,-0.044934,0.000000,0.000000,3.141593,0.000000,-0.022083,0.039389,0.000000,-0.285800,-0.147657,0.000000
1.928000,0.185338,-0.044623,0.000000,0.000000,3.141593,0.000000,-0.024257,0.038123,0.000000,-0.257901,-0.168923,0.000000
1.936000,0.185136,-0.044324,0.000000,0.000000,3.141593,0.000000,-0.026209,0.036686,0.000000,-0.230001,-0.190190,0.000000
1.944000,0.184919,-0.044037,0.000000,0.000000,3.141593,0.000000,-0.027938,0.035080,0.000000,-0.202102,-0.211457,0.000000
1.952000,0.184690,-0.043763,0.000000,0.000000,3.141593,0.000000,-0.029443,0.033303,0.000000,-0.174202,-0.232724,0.000000
1.960000,0.184449,-0.043505,0.000000,0.000000,3.141593,0.000000,-0.030725,0.031356,0.000000,-0.146303,-0.253991,0.000000
1.968000,0.184199,-0.043262,0.000000,0.000000,3.141593,0.000000,-0.031784,0.029239,0.000000,-0.118403,-0.275258,0.000000
1.976000,0.183941,-0.043037,0.000000,0.000000,3.141593,0.000000,-0.032619,0.026952,0.000000,-0.090504,-0.296524,0.000000
1.984000,0.183677,-0.042831,0.000000,0.000000,3.141593,0.000000,-0.033232,0.024495,0.000000,-0.062604,-0.317791,0.000000
1.992000,0.183410,-0.042646,0.000000,0.000000,3.141593,0.000000,-0.033621,0.021868,0.000000,-0.034705,-0.339058,0.000000
2.000000,0.183140,-0.042482,0.000000,0.000000,3.141593,0.000000,-0.033787,0.019070,0.000000,-0.006805,-0.360325,0.000000
2.008000,0.182870,-0.042341,0.000000,0.000000,3.141593,0.000000,-0.033730,0.016102,0.000000,0.021094,-0.381592,0.000000
2.016000,0.182601,-0.042225,0.000000,0.000000,3.141593,0.000000,-0.033449,0.012965,0.000000,0.048994,-0.402858,0.000000
2.024000,0.182335,-0.042134,0.000000,0.000000,3.141593,0.000000,-0.032946,0.009657,0.000000,0.076894,-0.424125,0.000000
2.032000,0.182074,-0.042071,0.000000,0.000000,3.141593,0.000000,-0.032223,0.006191,0.000000,0.100097,-0.431440,0.000000
2.040000,0.181820,-0.042034,0.000000,0.000000,3.141593,0.000000,-0.031395,0.002904,0.000000,0.106995,-0.390313,0.000000
2.048000,0.181572,-0.042023,0.000000,0.000000,3.141593,0.000000,-0.030511,-0.000054,0.000000,0.113893,-0.349185,0.000000
2.056000,0.181332,-0.042034,0.000000,0.000000,3.141593,0.000000,-0.029573,-0.002683,0.000000,0.120791,-0.308058,0.000000
2.064000,0.181099,-0.042065,0.000000,0.000000,3.141593,0.000000,-0.028579,-0.004983,0.000000,0.127689,-0.266930,0.000000
2.072000,0.180875,-0.042113,0.000000,0.000000,3.141593,0.000000,-0.027530,-0.006954,0.000000,0.134587,-0.225803,0.000000
2.080000,0.180659,-0.042176,0.000000,0.000000,3.141593,0.000000,-0.026425,-0.008596,0.000000,0.141485,-0.184676,0.000000
2.088000,0.180452,-0.042250,0.000000,0.000000,3.141593,0.000000,-0.025266,-0.009909,0.000000,0.148383,-0.143548,0.000000
2.096000,0.180255,-0.042333,0.000000,0.000000,3.141593,0.000000,-0.024051,-0.010893,0.000000,0.155281,-0.102421,0.000000
2.104000,0.180067,-0.042423,0.000000,0.000000,3.141593,0.000000,-0.022781,-0.011547,0.000000,0.162179,-0.061293,0.000000
2.112000,0.179890,-0.042517,0.000000,0.000000,3.141593,0.000000,-0.021456,-0.011873,0.000000,0.169077,-0.020166,0.000000
2.120000,0.179724,-0.042612,0.000000,0.000000,3.141593,0.000000,-0.020076,-0.011870,0.000000,0.175975,0.020962,0.000000
2.128000,0.179569,-0.042706,0.000000,0.000000,3.141593,0.000000,-0.018641,-0.011538,0.000000,0.182874,0.062089,0.000000
2.136000,0.179426,-0.042796,0.000000,0.000000,3.141593,0.000000,-0.017150,-0.010877,0.000000,0.189772,0.103217,0.000000
2.144000,0.179295,-0.042879,0.000000,0.000000,3.141593,0.000000,-0.015604,-0.009886,0.000000,0.196670,0.144344,0.000000
2.152000,0.179177,-0.042953,0.000000,0.000000,3.141593,0.000000,-0.014003,-0.008567,0.000000,0.203568,0.185472,0.000000
2.160000,0.179071,-0.043016,0.000000,0.000000,3.141593,0.000000,-0.012347,-0.006919,0.000000,0.210466,0.226599,0.000000
2.168000,0.178979,-0.043064,0.000000,0.000000,3.141593,0.000000,-0.010670,-0.005088,0.000000,0.206999,0.223593,0.000000
2.176000,0.178900,-0.043097,0.000000,0.000000,3.141593,0.000000,-0.009037,-0.003348,0.000000,0.201363,0.211351,0.000000
2.184000,0.178834,-0.043117,0.000000,0.000000,3.141593,0.000000,-0.007448,-0.001706,0.000000,0.195727,0.199108,0.000000
2.192000,0.178781,-0.043125,0.000000,0.000000,3.141593,0.000000,-0.005905,-0.000162,0.000000,0.190091,0.186866,0.000000
2.200000,0.178740,-0.043120,0.000000,0.000000,3.141593,0.000000,-0.004407,0.001284,0.000000,0.184455,0.174623,0.000000
2.208000,0.178710,-0.043105,0.000000,0.000000,3.141593,0.000000,-0.002954,0.002632,0.000000,0.178820,0.162381,0.000000
2.216000,0.178692,-0.043078,0.000000,0.000000,3.141593,0.000000,-0.001546,0.003882,0.000000,0.173184,0.150139,0.000000
2.224000,0.178686,-0.043043,0.000000,0.000000,3.141593,0.000000,-0.000183,0.005034,0.000000,0.167548,0.137896,0.000000
2.232000,0.178689,-0.042998,0.000000,0.000000,3.141593,0.000000,0.001135,0.006088,0.000000,0.161912,0.125654,0.000000
2.240000,0.178704,-0.042946,0.000000,0.000000,3.141593,0.000000,0.002408,0.007045,0.000000,0.156276,0.113411,0.000000
2.248000,0.178728,-0.042886,0.000000,0.000000,3.141593,0.000000,0.003635,0.007903,0.000000,0.150640,0.101169,0.000000
2.256000,0.178762,-0.042819,0.000000,0.000000,3.141593,0.000000,0.004818,0.008663,0.000000,0.145004,0.088927,0.000000
2.264000,0.178805,-0.042747,0.000000,0.000000,3.141593,0.000000,0.005955,0.009326,0.000000,0.139368,0.076684,0.000000
2.272000,0.178857,-0.042670,0.000000,0.000000,3.141593,0.000000,0.007048,0.009890,0.000000,0.133733,0.064442,0.000000
2.280000,0.178917,-0.042589,0.000000,0.000000,3.141593,0.000000,0.008095,0.010357,0.000000,0.128097,0.052199,0.000000
2.288000,0.178986,-0.042505,0.000000,0.000000,3.141593,0.000000,0.009097,0.010725,0.000000,0.122461,0.039957,0.000000
2.296000,0.179063,-0.042418,0.000000,0.000000,3.141593,0.000000,0.010054,0.010996,0.000000,0.116825,0.027715,0.000000
2.304000,0.179147,-0.042329,0.000000,0.000000,3.141593,0.000000,0.010967,0.011169,0.000000,0.111189,0.015472,0.000000
2.312000,0.179238,-0.042240,0.000000,0.000000,3.141593,0.000000,0.011834,0.011244,0.000000,0.105553,0.003230,0.000000
2.320000,0.179336,-0.042150,0.000000,0.000000,3.141593,0.000000,0.012655,0.011221,0.000000,0.099917,-0.009013,0.000000
2.328000,0.179441,-0.042060,0.000000,0.000000,3.141593,0.000000,0.013432,0.011100,0.000000,0.094281,-0.021255,0.000000
2.336000,0.179551,-0.041972,0.000000,0.000000,3.141593,0.000000,0.014164,0.010881,0.000000,0.088646,-0.033498,0.000000
2.344000,0.179667,-0.041886,0.000000,0.000000,3.141593,0.000000,0.014851,0.010564,0.000000,0.083010,-0.045740,0.000000
2.352000,0.179788,-0.041804,0.000000,0.000000,3.141593,0.000000,0.015492,0.010149,0.000000,0.077374,-0.057982,0.000000
2.360000,0.179915,-0.041724,0.000000,0.000000,3.141593,0.000000,0.016088,0.009636,0.000000,0.071738,-0.070225,0.000000
2.368000,0.180046,-0.041650,0.000000,0.000000,3.141593,0.000000,0.016640,0.009025,0.000000,0.066102,-0.082467,0.000000
2.376000,0.180181,-0.041580,0.000000,0.000000,3.141593,0.000000,0.017146,0.008316,0.000000,0.060466,-0.094710,0.000000
2.384000,0.180320,-0.041517,0.000000,0.000000,3.141593,0.000000,0.017607,0.007510,0.000000,0.054830,-0.106952,0.000000
2.392000,0.180462,-0.041460,0.000000,0.000000,3.141593,0.000000,0.018023,0.006605,0.000000,0.049194,-0.119194,0.000000
2.400000,0.180608,-0.041411,0.000000,0.000000,3.141593,0.000000,0.018394,0.005603,0.000000,0.043558,-0.131437,0.000000
2.408000,0.180757,-0.041371,0.000000,0.000000,3.141593,0.000000,0.018720,0.004502,0.000000,0.037923,-0.143679,0.000000
2.416000,0.180908,-0.041340,0.000000,0.000000,3.141593,0.000000,0.019001,0.003304,0.000000,0.032287,-0.155922,0.000000
2.424000,0.181061,-0.041318,0.000000,0.000000,3.141593,0.000000,0.019237,0.002007,0.000000,0.026651,-0.168164,0.000000
2.432000,0.181215,-0.041308,0.000000,0.000000,3.141593,0.000000,0.019428,0.000613,0.000000,0.021015,-0.180406,0.000000
2.440000,0.181371,-0.041309,0.000000,0.000000,3.141593,0.000000,0.019573,-0.000879,0.000000,0.015379,-0.192649,0.000000
2.448000,0.181528,-0.041322,0.000000,0.000000,3.141593,0.000000,0.019674,-0.002469,0.000000,0.009743,-0.204891,0.000000
2.456000,0.181686,-0.041349,0.000000,0.000000,3.141593,0.000000,0.019729,-0.004157,0.000000,0.004107,-0.217134,0.000000
2.464000,0.181844,-0.041389,0.000000,0.000000,3.141593,0.000000,0.019739,-0.005943,0.000000,-0.001529,-0.229376,0.000000
2.472000,0.182002,-0.041444,0.000000,0.000000,3.141593,0.000000,0.019705,-0.007827,0.000000,-0.007164,-0.241618,0.000000
2.480000,0.182159,-0.041514,0.000000,0.000000,3.141593,0.000000,0.019625,-0.009809,0.000000,-0.012800,-0.253861,0.000000
2.488000,0.182316,-0.041601,0.000000,0.000000,3.141593,0.000000,0.019500,-0.011889,0.000000,-0.018436,-0.266103,0.000000
2.496000,0.182471,-0.041705,0.000000,0.000000,3.141593,0.000000,0.019330,-0.014067,0.000000,-0.024072,-0.278346,0.000000
2.504000,0.182625,-0.041826,0.000000,0.000000,3.141593,0.000000,0.019115,-0.016343,0.000000,-0.029708,-0.290588,0.000000
2.512000,0.182777,-0.041967,0.000000,0.000000,3.141593,0.000000,0.018854,-0.018716,0.000000,-0.035344,-0.302830,0.000000
2.520000,0.182926,-0.042126,0.000000,0.000000,3.141593,0.000000,0.018549,-0.021188,0.000000,-0.040980,-0.315073,0.000000
2.528000,0.183073,-0.042306,0.000000,0.000000,3.141593,0.000000,0.018199,-0.023758,0.000000,-0.046616,-0.327315,0.000000
2.536000,0.183217,-0.042507,0.000000,0.000000,3.141593,0.000000,0.017803,-0.026425,0.000000,-0.052251,-0.339558,0.000000
2.544000,0.183358,-0.042729,0.000000,0.000000,3.141593,0.000000,0.017363,-0.029190,0.000000,-0.057887,-0.351800,0.000000
2.552000,0.183495,-0.042974,0.000000,0.000000,3.141593,0.000000,0.016877,-0.032054,0.000000,-0.063523,-0.364043,0.000000
2.560000,0.183628,-0.043242,0.000000,0.000000,3.141593,0.000000,0.016346,-0.035015,0.000000,-0.069159,-0.376285,0.000000
2.568000,0.183756,-0.043534,0.000000,0.000000,3.141593,0.000000,0.015771,-0.038074,0.000000,-0.074795,-0.388527,0.000000
2.576000,0.183880,-0.043852,0.000000,0.000000,3.141593,0.000000,0.015150,-0.041232,0.000000,-0.080431,-0.400770,0.000000
2.584000,0.183999,-0.044194,0.000000,0.000000,3.141593,0.000000,0.014484,-0.044487,0.000000,-0.086067,-0.413012,0.000000
2.592000,0.184112,-0.044564,0.000000,0.000000,3.141593,0.000000,0.013773,-0.047840,0.000000,-0.091703,-0.425255,0.000000
2.600000,0.184219,-0.044960,0.000000,0.000000,3.141593,0.000000,0.013016,-0.051291,0.000000,-0.097339,-0.437497,0.000000
2.608000,0.184320,-0.045384,0.000000,0.000000,3.141593,0.000000,0.012215,-0.054840,0.000000,-0.102974,-0.449739,0.000000
2.616000,0.184414,-0.045838,0.000000,0.000000,3.141593,0.000000,0.011369,-0.058487,0.000000,-0.108610,-0.461982,0.000000
2.624000,0.184502,-0.046321,0.000000,0.000000,3.141593,0.000000,0.010477,-0.062231,0.000000,-0.114246,-0.474224,0.000000
2.632000,0.184582,-0.046834,0.000000,0.000000,3.141593,0.000000,0.009541,-0.066074,0.000000,-0.119882,-0.486467,0.000000
2.640000,0.184654,-0.047378,0.000000,0.000000,3.141593,0.000000,0.008559,-0.070015,0.000000,-0.125518,-0.498709,0.000000
2.648000,0.184719,-0.047954,0.000000,0.000000,3.141593,0.000000,0.007533,-0.074054,0.000000,-0.131154,-0.510951,0.000000
2.656000,0.184775,-0.048563,0.000000,0.000000,3.141593,0.000000,0.006461,-0.078190,0.000000,-0.136790,-0.523194,0.000000
2.664000,0.184822,-0.049205,0.000000,0.000000,3.141593,0.000000,0.005344,-0.082425,0.000000,-0.142426,-0.535436,0.000000
2.672000,0.184860,-0.049882,0.000000,0.000000,3.141593,0.000000,0.004182,-0.086757,0.000000,-0.148061,-0.547679,0.000000
2.680000,0.184889,-0.050594,0.000000,0.000000,3.141593,0.000000,0.002975,-0.091187,0.000000,-0.153697,-0.559921,0.000000
2.688000,0.184907,-0.051341,0.000000,0.000000,3.141593,0.000000,0.001723,-0.095716,0.000000,-0.159333,-0.572163,0.000000
2.696000,0.184916,-0.052126,0.000000,0.000000,3.141593,0.000000,0.000426,-0.100342,0.000000,-0.164969,-0.584406,0.000000
2.704000,0.184914,-0.052947,0.000000,0.000000,3.141593,0.000000,-0.000917,-0.105066,0.000000,-0.170605,-0.596648,0.000000
2.712000,0.184901,-0.053807,0.000000,0.000000,3.141593,0.000000,-0.002304,-0.109888,0.000000,-0.176241,-0.608891,0.000000
2.720000,0.184877,-0.054706,0.000000,0.000000,3.141593,0.000000,-0.003737,-0.114809,0.000000,-0.181877,-0.621133,0.000000
2.728000,0.184841,-0.055644,0.000000,0.000000,3.141593,0.000000,-0.005214,-0.119827,0.000000,-0.187513,-0.633375,0.000000
2.736000,0.184794,-0.056623,0.000000,0.000000,3.141593,0.000000,-0.006737,-0.124943,0.000000,-0.193148,-0.645618,0.000000
2.744000,0.184733,-0.057643,0.000000,0.000000,3.141593,0.000000,-0.008304,-0.130156,0.000000,-0.198784,-0.657860,0.000000
2.752000,0.184661,-0.058706,0.000000,0.000000,3.141593,0.000000,-0.009917,-0.135468,0.000000,-0.204420,-0.670103,0.000000
2.760000,0.184575,-0.059811,0.000000,0.000000,3.141593,0.000000,0.000000,0.000000,0.000000,0.000000,0.000000,0.000000
2.760000,0.184600,-0.059400,0.000123,0.000000,3.141593,0.000000,0.000000,0.000000,0.000000,0.000000,0.000000,0.000000
2.768000,0.184925,-0.059712,0.000660,0.000000,3.141593,0.000000,0.040288,-0.038609,0.067008,-0.095965,0.091967,-0.043081
2.776000,0.185245,-0.060018,0.001195,0.000000,3.141593,0.000000,0.039522,-0.037875,0.066663,-0.095472,0.091494,-0.043081
2.784000,0.185558,-0.060318,0.001727,0.000000,3.141593,0.000000,0.038760,-0.037145,0.066319,-0.094978,0.091021,-0.043081
2.792000,0.185865,-0.060612,0.002256,0.000000,3.141593,0.000000,0.038002,-0.036419,0.065974,-0.094484,0.090548,-0.043081
2.800000,0.186166,-0.060901,0.002782,0.000000,3.141593,0.000000,0.037248,-0.035696,0.065629,-0.093991,0.090075,-0.043081
2.808000,0.186461,-0.061183,0.003306,0.000000,3.141593,0.000000,0.036498,-0.034978,0.065285,-0.093497,0.089602,-0.043081
2.816000,0.186750,-0.061460,0.003827,0.000000,3.141593,0.000000,0.035752,-0.034263,0.064940,-0.093004,0.089128,-0.043081
2.824000,0.187033,-0.061731,0.004345,0.000000,3.141593,0.000000,0.035010,-0.033551,0.064595,-0.092510,0.088655,-0.043081
2.832000,0.187310,-0.061997,0.004860,0.000000,3.141593,0.000000,0.034272,-0.032844,0.064251,-0.092016,0.088182,-0.043081
2.840000,0.187581,-0.062257,0.005373,0.000000,3.141593,0.000000,0.033538,-0.032141,0.063906,-0.091523,0.087709,-0.043081
2.848000,0.187847,-0.062511,0.005883,0.000000,3.141593,0.000000,0.032808,-0.031441,0.063561,-0.091029,0.087236,-0.043081
2.856000,0.188106,-0.062760,0.006390,0.000000,3.141593,0.000000,0.032082,-0.030745,0.063217,-0.090536,0.086763,-0.043081
2.864000,0.188360,-0.063003,0.006894,0.000000,3.141593,0.000000,0.031359,-0.030053,0.062872,-0.090042,0.086290,-0.043081
2.872000,0.188608,-0.063241,0.007396,0.000000,3.141593,0.000000,0.030641,-0.029364,0.062527,-0.089549,0.085817,-0.043081
2.880000,0.188850,-0.063473,0.007895,0.000000,3.141593,0.000000,0.029926,-0.028680,0.062183,-0.089055,0.085344,-0.043081
2.888000,0.189087,-0.063700,0.008391,0.000000,3.141593,0.000000,0.029216,-0.027999,0.061838,-0.088561,0.084871,-0.043081
2.896000,0.189318,-0.063921,0.008884,0.000000,3.141593,0.000000,0.028509,-0.027322,0.061494,-0.088068,0.084398,-0.043081
2.904000,0.189543,-0.064137,0.009375,0.000000,3.141593,0.000000,0.027807,-0.026648,0.061149,-0.087574,0.083925,-0.043081
2.912000,0.189763,-0.064347,0.009863,0.000000,3.141593,0.000000,0.027108,-0.025979,0.060804,-0.087081,0.083452,-0.043081
2.920000,0.189977,-0.064553,0.010348,0.000000,3.141593,0.000000,0.026414,-0.025313,0.060460,-0.086587,0.082979,-0.043081
2.928000,0.190185,-0.064752,0.010830,0.000000,3.141593,0.000000,0.025723,-0.024651,0.060115,-0.086093,0.082506,-0.043081
2.936000,0.190388,-0.064947,0.011309,0.000000,3.141593,0.000000,0.025036,-0.023993,0.059770,-0.085600,0.082033,-0.043081
2.944000,0.190586,-0.065136,0.011786,0.000000,3.141593,0.000000,0.024353,-0.023339,0.059426,-0.085106,0.081560,-0.043081
2.952000,0.190778,-0.065320,0.012260,0.000000,3.141593,0.000000,0.023674,-0.022688,0.059081,-0.084613,0.081087,-0.043081
2.960000,0.190965,-0.065499,0.012732,0.000000,3.141593,0.000000,0.022999,-0.022041,0.058736,-0.084119,0.080614,-0.043081
2.968000,0.191146,-0.065673,0.013200,0.000000,3.141593,0.000000,0.022328,-0.021398,0.058392,-0.083626,0.080141,-0.043081
2.976000,0.191322,-0.065842,0.013666,0.000000,3.141593,0.000000,0.021661,-0.020759,0.058047,-0.083132,0.079668,-0.043081
2.984000,0.191492,-0.066005,0.014129,0.000000,3.141593,0.000000,0.020998,-0.020123,0.057702,-0.082638,0.079195,-0.043081
2.992000,0.191658,-0.066164,0.014589,0.000000,3.141593,0.000000,0.020339,-0.019492,0.057358,-0.082145,0.078722,-0.043081
3.000000,0.191818,-0.066317,0.015047,0.000000,3.141593,0.000000,0.019684,-0.018864,0.057013,-0.081651,0.078249,-0.043081
3.008000,0.191973,-0.066466,0.015501,0.000000,3.141593,0.000000,0.019033,-0.018240,0.056668,-0.081158,0.077776,-0.043081
3.016000,0.192122,-0.066609,0.015953,0.000000,3.141593,0.000000,0.018386,-0.017619,0.056324,-0.080664,0.077303,-0.043081
3.024000,0.192267,-0.066747,0.016402,0.000000,3.141593,0.000000,0.017742,-0.017003,0.055979,-0.080170,0.076830,-0.043081
3.032000,0.192406,-0.066881,0.016849,0.000000,3.141593,0.000000,0.017103,-0.016390,0.055635,-0.079677,0.076357,-0.043081
3.040000,0.192541,-0.067010,0.017293,0.000000,3.141593,0.000000,0.016467,-0.015781,0.055290,-0.079183,0.075884,-0.043081
3.048000,0.192670,-0.067134,0.017734,0.000000,3.141593,0.000000,0.015836,-0.015176,0.054945,-0.078690,0.075411,-0.043081
3.056000,0.192794,-0.067253,0.018172,0.000000,3.141593,0.000000,0.015208,-0.014575,0.054601,-0.078196,0.074938,-0.043081
3.064000,0.192913,-0.067367,0.018607,0.000000,3.141593,0.000000,0.014585,-0.013977,0.054256,-0.077703,0.074465,-0.043081
3.072000,0.193027,-0.067476,0.019040,0.000000,3.141593,0.000000,0.013965,-0.013383,0.053911,-0.077209,0.073992,-0.043081
3.080000,0.193137,-0.067581,0.019470,0.000000,3.141593,0.000000,0.013349,-0.012793,0.053567,-0.076715,0.073519,-0.043081
3.088000,0.193241,-0.067681,0.019897,0.000000,3.141593,0.000000,0.012738,-0.012207,0.053222,-0.076222,0.073046,-0.043081
3.096000,0.193340,-0.067776,0.020321,0.000000,3.141593,0.000000,0.012130,-0.011624,0.052877,-0.075728,0.072573,-0.043081
3.104000,0.193435,-0.067867,0.020743,0.000000,3.141593,0.000000,0.011526,-0.011046,0.052533,-0.075235,0.072100,-0.043081
3.112000,0.193525,-0.067953,0.021162,0.000000,3.141593,0.000000,0.010926,-0.010471,0.052188,-0.074741,0.071627,-0.043081
3.120000,0.193610,-0.068034,0.021578,0.000000,3.141593,0.000000,0.010330,-0.009900,0.051843,-0.074247,0.071154,-0.043081
3.128000,0.193690,-0.068111,0.021991,0.000000,3.141593,0.000000,0.009738,-0.009332,0.051499,-0.073754,0.070681,-0.043081
3.136000,0.193766,-0.068184,0.022402,0.000000,3.141593,0.000000,0.009150,-0.008769,0.051154,-0.073260,0.070208,-0.043081
3.144000,0.193837,-0.068252,0.022810,0.000000,3.141593,0.000000,0.008566,-0.008209,0.050810,-0.072767,0.069735,-0.043081
3.152000,0.193903,-0.068315,0.023215,0.000000,3.141593,0.000000,0.007986,-0.007653,0.050465,-0.072273,0.069262,-0.043081
3.160000,0.193964,-0.068374,0.023617,0.000000,3.141593,0.000000,0.007410,-0.007101,0.050120,-0.071780,0.068789,-0.043081
3.168000,0.194021,-0.068429,0.024017,0.000000,3.141593,0.000000,0.006837,-0.006552,0.049776,-0.071286,0.068316,-0.043081
3.176000,0.194074,-0.068479,0.024414,0.000000,3.141593,0.000000,0.006269,-0.006008,0.049431,-0.070792,0.067843,-0.043081
3.184000,0.194122,-0.068525,0.024808,0.000000,3.141593,0.000000,0.005705,-0.005467,0.049086,-0.070299,0.067370,-0.043081
3.192000,0.194165,-0.068566,0.025199,0.000000,3.141593,0.000000,0.005144,-0.004930,0.048742,-0.069805,0.066897,-0.043081
3.200000,0.194204,-0.068604,0.025588,0.000000,3.141593,0.000000,0.004588,-0.004397,0.048397,-0.069312,0.066424,-0.043081
3.208000,0.194238,-0.068637,0.025973,0.000000,3.141593,0.000000,0.004035,-0.003867,0.048052,-0.068818,0.065951,-0.043081
3.216000,0.194269,-0.068666,0.026356,0.000000,3.141593,0.000000,0.003487,-0.003341,0.047708,-0.068324,0.065478,-0.043081
3.224000,0.194294,-0.068690,0.026737,0.000000,3.141593,0.000000,0.002942,-0.002819,0.047363,-0.067831,0.065005,-0.043081
3.232000,0.194316,-0.068711,0.027114,0.000000,3.141593,0.000000,0.002401,-0.002301,0.047018,-0.067337,0.064532,-0.043081
3.240000,0.194333,-0.068727,0.027489,0.000000,3.141593,0.000000,0.001865,-0.001787,0.046674,-0.066844,0.064059,-0.043081
3.248000,0.194345,-0.068739,0.027861,0.000000,3.141593,0.000000,0.001332,-0.001276,0.046329,-0.066350,0.063586,-0.043081
3.256000,0.194354,-0.068748,0.028230,0.000000,3.141593,0.000000,0.000803,-0.000770,0.045984,-0.065857,0.063113,-0.043081
3.264000,0.194358,-0.068752,0.028597,0.000000,3.141593,0.000000,0.000278,-0.000267,0.045640,-0.065363,0.062640,-0.043081
3.272000,0.194358,-0.068752,0.028960,0.000000,3.141593,0.000000,-0.000243,0.000233,0.045295,-0.064869,0.062166,-0.043081
3.280000,0.194354,-0.068748,0.029321,0.000000,3.141593,0.000000,-0.000760,0.000728,0.044951,-0.064376,0.061693,-0.043081
3.288000,0.194346,-0.068740,0.029680,0.000000,3.141593,0.000000,-0.001273,0.001220,0.044606,-0.063882,0.061220,-0.043081
3.296000,0.194334,-0.068728,0.030035,0.000000,3.141593,0.000000,-0.001782,0.001708,0.044261,-0.063389,0.060747,-0.043081
3.304000,0.194318,-0.068713,0.030388,0.000000,3.141593,0.000000,-0.002287,0.002192,0.043917,-0.062895,0.060274,-0.043081
3.312000,0.194297,-0.068693,0.030738,0.000000,3.141593,0.000000,-0.002788,0.002672,0.043572,-0.062401,0.059801,-0.043081
3.320000,0.194273,-0.068670,0.031085,0.000000,3.141593,0.000000,-0.003285,0.003149,0.043227,-0.061908,0.059328,-0.043081
3.328000,0.194245,-0.068643,0.031429,0.000000,3.141593,0.000000,-0.003779,0.003621,0.042883,-0.061414,0.058855,-0.043081
3.336000,0.194213,-0.068612,0.031771,0.000000,3.141593,0.000000,-0.004268,0.004090,0.042538,-0.060921,0.058382,-0.043081
3.344000,0.194177,-0.068578,0.032110,0.000000,3.141593,0.000000,-0.004753,0.004555,0.042193,-0.060427,0.057909,-0.043081
3.352000,0.194137,-0.068539,0.032446,0.000000,3.141593,0.000000,-0.005235,0.005017,0.041849,-0.059934,0.057436,-0.043081
3.360000,0.194093,-0.068497,0.032780,0.000000,3.141593,0.000000,-0.005712,0.005474,0.041504,-0.059440,0.056963,-0.043081
3.368000,0.194045,-0.068452,0.033110,0.000000,3.141593,0.000000,-0.006186,0.005928,0.041159,-0.058946,0.056490,-0.043081
3.376000,0.193994,-0.068403,0.033438,0.000000,3.141593,0.000000,-0.006655,0.006378,0.040815,-0.058453,0.056017,-0.043081
3.384000,0.193939,-0.068350,0.033763,0.000000,3.141593,0.000000,-0.007121,0.006824,0.040470,-0.057959,0.055544,-0.043081
3.392000,0.193880,-0.068293,0.034086,0.000000,3.141593,0.000000,-0.007583,0.007267,0.040125,-0.057466,0.055071,-0.043081
3.400000,0.193818,-0.068233,0.034405,0.000000,3.141593,0.000000,-0.008041,0.007706,0.039781,-0.056972,0.054598,-0.043081
3.408000,0.193751,-0.068170,0.034722,0.000000,3.141593,0.000000,-0.008494,0.008140,0.039436,-0.056478,0.054125,-0.043081
3.416000,0.193682,-0.068103,0.035036,0.000000,3.141593,0.000000,-0.008944,0.008572,0.039092,-0.055985,0.053652,-0.043081
3.424000,0.193608,-0.068033,0.035348,0.000000,3.141593,0.000000,-0.009390,0.008999,0.038747,-0.055491,0.053179,-0.043081
3.432000,0.193531,-0.067959,0.035656,0.000000,3.141593,0.000000,-0.009832,0.009422,0.038402,-0.054998,0.052706,-0.043081
3.440000,0.193451,-0.067882,0.035962,0.000000,3.141593,0.000000,-0.010270,0.009842,0.038058,-0.054504,0.052233,-0.043081
3.448000,0.193367,-0.067802,0.036265,0.000000,3.141593,0.000000,-0.010704,0.010258,0.037713,-0.054011,0.051760,-0.043081
3.456000,0.193280,-0.067718,0.036566,0.000000,3.141593,0.000000,-0.011134,0.010670,0.037368,-0.053517,0.051287,-0.043081
3.464000,0.193189,-0.067631,0.036863,0.000000,3.141593,0.000000,-0.011560,0.011079,0.037024,-0.053023,0.050814,-0.043081
3.472000,0.193095,-0.067541,0.037158,0.000000,3.141593,0.000000,-0.011983,0.011483,0.036679,-0.052530,0.050341,-0.043081
3.480000,0.192997,-0.067447,0.037450,0.000000,3.141593,0.000000,-0.012401,0.011884,0.036334,-0.052036,0.049868,-0.043081
3.488000,0.192896,-0.067351,0.037739,0.000000,3.141593,0.000000,-0.012815,0.012281,0.035990,-0.051543,0.049395,-0.043081
3.496000,0.192792,-0.067251,0.038026,0.000000,3.141593,0.000000,-0.013226,0.012675,0.035645,-0.051049,0.048922,-0.043081
3.504000,0.192685,-0.067148,0.038310,0.000000,3.141593,0.000000,-0.013632,0.013064,0.035300,-0.050555,0.048449,-0.043081
3.512000,0.192574,-0.067042,0.038591,0.000000,3.141593,0.000000,-0.014034,0.013450,0.034956,-0.050062,0.047976,-0.043081
3.520000,0.192460,-0.066933,0.038869,0.000000,3.141593,0.000000,-0.014433,0.013832,0.034611,-0.049568,0.047503,-0.043081
3.528000,0.192343,-0.066821,0.039144,0.000000,3.141593,0.000000,-0.014828,0.014210,0.034267,-0.049075,0.047030,-0.043081
3.536000,0.192223,-0.066705,0.039417,0.000000,3.141593,0.000000,-0.015218,0.014584,0.033922,-0.048581,0.046557,-0.043081
3.544000,0.192100,-0.066587,0.039687,0.000000,3.141593,0.000000,-0.015605,0.014955,0.033577,-0.048088,0.046084,-0.043081
3.552000,0.191973,-0.066466,0.039954,0.000000,3.141593,0.000000,-0.015988,0.015321,0.033233,-0.047594,0.045611,-0.043081
3.560000,0.191844,-0.066342,0.040219,0.000000,3.141593,0.000000,-0.016366,0.015684,0.032888,-0.047100,0.045138,-0.043081
3.568000,0.191711,-0.066215,0.040481,0.000000,3.141593,0.000000,-0.016741,0.016044,0.032543,-0.046607,0.044665,-0.043081
3.576000,0.191576,-0.066085,0.040740,0.000000,3.141593,0.000000,-0.017112,0.016399,0.032199,-0.046113,0.044192,-0.043081
3.584000,0.191438,-0.065953,0.040996,0.000000,3.141593,0.000000,-0.017479,0.016751,0.031854,-0.045620,0.043719,-0.043081
3.592000,0.191296,-0.065817,0.041249,0.000000,3.141593,0.000000,-0.017842,0.017099,0.031509,-0.045126,0.043246,-0.043081
3.600000,0.191152,-0.065679,0.041500,0.000000,3.141593,0.000000,-0.018201,0.017443,0.031165,-0.044632,0.042773,-0.043081
3.608000,0.191005,-0.065538,0.041748,0.000000,3.141593,0.000000,-0.018556,0.017783,0.030820,-0.044139,0.042300,-0.043081
3.616000,0.190855,-0.065395,0.041993,0.000000,3.141593,0.000000,-0.018907,0.018119,0.030475,-0.043645,0.041827,-0.043081
3.624000,0.190703,-0.065248,0.042235,0.000000,3.141593,0.000000,-0.019254,0.018452,0.030131,-0.043152,0.041354,-0.043081
3.632000,0.190547,-0.065099,0.042475,0.000000,3.141593,0.000000,-0.019598,0.018781,0.029786,-0.042658,0.040881,-0.043081
3.640000,0.190389,-0.064948,0.042712,0.000000,3.141593,0.000000,-0.019937,0.019106,0.029441,-0.042165,0.040408,-0.043081
3.648000,0.190228,-0.064794,0.042946,0.000000,3.141593,0.000000,-0.020272,0.019428,0.029097,-0.041671,0.039935,-0.043081
3.656000,0.190065,-0.064637,0.043178,0.000000,3.141593,0.000000,-0.020604,0.019745,0.028752,-0.041177,0.039462,-0.043081
3.664000,0.189899,-0.064478,0.043406,0.000000,3.141593,0.000000,-0.020931,0.020059,0.028408,-0.040684,0.038989,-0.043081
3.672000,0.189730,-0.064316,0.043632,0.000000,3.141593,0.000000,-0.021255,0.020369,0.028063,-0.040190,0.038516,-0.043081
3.680000,0.189559,-0.064152,0.043855,0.000000,3.141593,0.000000,-0.021574,0.020675,0.027718,-0.039697,0.038043,-0.043081
3.688000,0.189385,-0.063985,0.044076,0.000000,3.141593,0.000000,-0.021890,0.020978,0.027374,-0.039203,0.037570,-0.043081
3.696000,0.189208,-0.063816,0.044293,0.000000,3.141593,0.000000,-0.022201,0.021276,0.027029,-0.038709,0.037097,-0.043081
3.704000,0.189030,-0.063645,0.044508,0.000000,3.141593,0.000000,-0.022509,0.021571,0.026684,-0.038216,0.036624,-0.043081
3.712000,0.188848,-0.063471,0.044720,0.000000,3.141593,0.000000,-0.022813,0.021862,0.026340,-0.037722,0.036151,-0.043081
3.720000,0.188665,-0.063295,0.044929,0.000000,3.141593,0.000000,-0.023113,0.022150,0.025995,-0.037229,0.035678,-0.043081
3.728000,0.188478,-0.063117,0.045136,0.000000,3.141593,0.000000,-0.023409,0.022433,0.025650,-0.036735,0.035204,-0.043081
3.736000,0.188290,-0.062936,0.045340,0.000000,3.141593,0.000000,-0.023700,0.022713,0.025306,-0.036242,0.034731,-0.043081
3.744000,0.188099,-0.062753,0.045541,0.000000,3.141593,0.000000,-0.023988,0.022989,0.024961,-0.035748,0.034258,-0.043081
3.752000,0.187906,-0.062568,0.045739,0.000000,3.141593,0.000000,-0.024272,0.023261,0.024616,-0.035254,0.033785,-0.043081
3.760000,0.187711,-0.062381,0.045935,0.000000,3.141593,0.000000,-0.024552,0.023529,0.024272,-0.034761,0.033312,-0.043081
3.768000,0.187513,-0.062192,0.046128,0.000000,3.141593,0.000000,-0.024829,0.023794,0.023927,-0.034267,0.032839,-0.043081
3.776000,0.187314,-0.062001,0.046318,0.000000,3.141593,0.000000,-0.025101,0.024055,0.023582,-0.033774,0.032366,-0.043081
3.784000,0.187112,-0.061807,0.046505,0.000000,3.141593,0.000000,-0.025369,0.024312,0.023238,-0.033280,0.031893,-0.043081
3.792000,0.186908,-0.061612,0.046689,0.000000,3.141593,0.000000,-0.025633,0.024565,0.022893,-0.032786,0.031420,-0.043081
3.800000,0.186702,-0.061414,0.046871,0.000000,3.141593,0.000000,-0.025894,0.024815,0.022549,-0.032293,0.030947,-0.043081
3.808000,0.186493,-0.061215,0.047050,0.000000,3.141593,0.000000,-0.026150,0.025060,0.022204,-0.031799,0.030474,-0.043081
3.816000,0.186283,-0.061013,0.047227,0.000000,3.141593,0.000000,-0.026402,0.025302,0.021859,-0.031306,0.030001,-0.043081
3.824000,0.186071,-0.060810,0.047400,0.000000,3.141593,0.000000,-0.026651,0.025540,0.021515,-0.030812,0.029528,-0.043081
3.832000,0.185857,-0.060604,0.047571,0.000000,3.141593,0.000000,-0.026895,0.025775,0.021170,-0.030319,0.029055,-0.043081
3.840000,0.185641,-0.060397,0.047739,0.000000,3.141593,0.000000,-0.027136,0.026005,0.020825,-0.029825,0.028582,-0.043081
3.848000,0.185423,-0.060188,0.047904,0.000000,3.141593,0.000000,-0.027373,0.026232,0.020481,-0.029331,0.028109,-0.043081
3.856000,0.185203,-0.059978,0.048066,0.000000,3.141593,0.000000,-0.027605,0.026455,0.020136,-0.028838,0.027636,-0.043081
3.864000,0.184981,-0.059765,0.048226,0.000000,3.141593,0.000000,-0.027834,0.026674,0.019791,-0.028344,0.027163,-0.043081
3.872000,0.184757,-0.059551,0.048383,0.000000,3.141593,0.000000,-0.028059,0.026890,0.019447,-0.027851,0.026690,-0.043081
3.880000,0.184532,-0.059335,0.048537,0.000000,3.141593,0.000000,-0.028280,0.027101,0.019102,-0.027357,0.026217,-0.043081
3.888000,0.184305,-0.059117,0.048689,0.000000,3.141593,0.000000,-0.028496,0.027309,0.018757,-0.026863,0.025744,-0.043081
3.896000,0.184076,-0.058898,0.048837,0.000000,3.141593,0.000000,-0.028709,0.027513,0.018413,-0.026370,0.025271,-0.043081
3.904000,0.183846,-0.058677,0.048983,0.000000,3.141593,0.000000,-0.028918,0.027713,0.018068,-0.025876,0.024798,-0.043081
3.912000,0.183613,-0.058455,0.049126,0.000000,3.141593,0.000000,-0.029123,0.027910,0.017724,-0.025383,0.024325,-0.043081
3.920000,0.183380,-0.058231,0.049267,0.000000,3.141593,0.000000,-0.029324,0.028103,0.017379,-0.024889,0.023852,-0.043081
3.928000,0.183144,-0.058005,0.049405,0.000000,3.141593,0.000000,-0.029522,0.028292,0.017034,-0.024396,0.023379,-0.043081
3.936000,0.182907,-0.057778,0.049539,0.000000,3.141593,0.000000,-0.029715,0.028477,0.016690,-0.023902,0.022906,-0.043081
3.944000,0.182669,-0.057549,0.049672,0.000000,3.141593,0.000000,-0.029904,0.028658,0.016345,-0.023408,0.022433,-0.043081
3.952000,0.182429,-0.057319,0.049801,0.000000,3.141593,0.000000,-0.030089,0.028836,0.016000,-0.022915,0.021960,-0.043081
3.960000,0.182187,-0.057088,0.049928,0.000000,3.141593,0.000000,-0.030271,0.029009,0.015656,-0.022421,0.021487,-0.043081
3.968000,0.181945,-0.056855,0.050051,0.000000,3.141593,0.000000,-0.030448,0.029179,0.015311,-0.021928,0.021014,-0.043081
