t,x,y,z,roll,pitch,yaw,vx,vy,vz,ax,ay,az
0.000000,0.18460000000000004,-0.06,0.0,0.000000,3.141593,0.000000,0.0,0.0,0.0,-1.4003300596063668,0.848154374166303,0.0
0.008000,0.18455654180419712,-0.059973888218261794,0.0,0.000000,3.141593,0.000000,-0.010695503187664398,0.006399300655160531,0.0,-1.2735457373097325,0.7516707896238297,0.0
0.016000,0.1844315766812064,-0.05989966950598767,0.0,0.000000,3.141593,0.000000,-0.020376731796955722,0.012026732633981276,0.0,-1.1467614150130983,0.6551872050813565,0.0
0.024000,0.18423321882765484,-0.05978351881258834,0.0,0.000000,3.141593,0.000000,-0.029043685827873963,0.016882295936462236,0.0,-1.0199770927164638,0.5587036205388832,0.0
0.032000,0.18396958244016942,-0.059631611087474515,0.0,0.000000,3.141593,0.000000,-0.03669636528041914,0.02096599056260341,0.0,-0.8931927704198295,0.46222003599640993,0.0
0.040000,0.18364878171537713,-0.059450121280056924,0.0,0.000000,3.141593,0.000000,-0.043334770154591244,0.024277816512404796,0.0,-0.7664084481231952,0.36573645145393674,0.0
0.048000,0.18327893084990496,-0.05924522433974627,0.0,0.000000,3.141593,0.000000,-0.04895890045039026,0.026817773785866396,0.0,-0.6396241258265608,0.26925286691146344,0.0
0.056000,0.18286814404037988,-0.059023095215953295,0.0,0.000000,3.141593,0.000000,-0.053568756167816214,0.028585862382988207,0.0,-0.5128398035299264,0.17276928236899014,0.0
0.064000,0.1824245354834289,-0.058789908858088706,0.0,0.000000,3.141593,0.000000,-0.057164337306869095,0.02958208230377024,0.0,-0.38605548123329214,0.07628569782651684,0.0
0.072000,0.18195621937567896,-0.058551840215563214,0.0,0.000000,3.141593,0.000000,-0.05974564386754889,0.029806433548212483,0.0,-0.25927115893665764,-0.02019788671595657,0.0
0.080000,0.1814713099137571,-0.058315064237787546,0.0,0.000000,3.141593,0.000000,-0.06131267584985562,0.02925891611631494,0.0,-0.1324868366400236,-0.11668147125842954,0.0
0.088000,0.18097792129429027,-0.05808575587417242,0.0,0.000000,3.141593,0.000000,-0.061865433253789265,0.027939530008077612,0.0,-0.005702514343389309,-0.21316505580090295,0.0
0.096000,0.18048416771390546,-0.05787009007412854,0.0,0.000000,3.141593,0.000000,-0.061403916079349835,0.025848275223500493,0.0,0.12108180795324519,-0.30964864034337614,0.0
0.104000,0.17999816336922966,-0.05767424178706665,0.0,0.000000,3.141593,0.000000,-0.05992812432653734,0.022985151762583575,0.0,0.2478661302498797,-0.40613222488584955,0.0
0.112000,0.1795276932013426,-0.057504110691770756,0.0,0.000000,3.141593,0.000000,-0.057649628410404226,0.019527040838792937,0.0,0.2840176276833101,-0.4268431923651878,0.0
0.120000,0.17907528055325478,-0.05736119756346828,0.0,0.000000,3.141593,0.000000,-0.05549155672285285,0.016245714205301853,0.0,0.255500294204533,-0.3934884660075833,0.0
0.128000,0.1786392199239961,-0.0572434676969903,0.0,0.000000,3.141593,0.000000,-0.053561623703131694,0.013231225382671604,0.0,0.2269829607257558,-0.3601337396499788,0.0
0.136000,0.17821768620422382,-0.05714878638984991,0.0,0.000000,3.141593,0.000000,-0.05185982935124075,0.01048357437090219,0.0,0.19846562724697858,-0.32677901329237424,0.0
0.144000,0.17780885428459534,-0.05707501893956024,0.0,0.000000,3.141593,0.000000,-0.05038617366718003,0.00800276116999361,0.0,0.16994829376820142,-0.29342428693476974,0.0
0.152000,0.17741089905576804,-0.05702003064363438,0.0,0.000000,3.141593,0.000000,-0.04914065665094953,0.005788785779945876,0.0,0.1414309602894243,-0.26006956057716535,0.0
0.160000,0.17702199540839927,-0.056981686799585464,0.0,0.000000,3.141593,0.000000,-0.04812327830254925,0.003841648200758968,0.0,0.1129136268106471,-0.2267148342195608,0.0
0.168000,0.17664031823314638,-0.056957852704926606,0.0,0.000000,3.141593,0.000000,-0.04733403862197918,0.0021613484324329007,0.0,0.08439629333186993,-0.1933601078619563,0.0
0.176000,0.1762640424206667,-0.05694639365717091,0.0,0.000000,3.141593,0.000000,-0.046772937609239326,0.0007478864749676708,0.0,0.055878959853092824,-0.16000538150435184,0.0
0.184000,0.17589134286161767,-0.056945174953831494,0.0,0.000000,3.141593,0.000000,-0.0464399752643297,-0.0003987376716367286,0.0,0.027361626374315606,-0.12665065514674734,0.0
0.192000,0.17552039444665654,-0.056952061892421475,0.0,0.000000,3.141593,0.000000,-0.04633515158725028,-0.001278524007380287,0.0,-0.0011557071044615563,-0.09329592878914283,0.0
0.200000,0.1751493720664408,-0.05696491977045395,0.0,0.000000,3.141593,0.000000,-0.04645846657800108,-0.0018914725322630166,0.0,-0.02967304058323872,-0.059941202431538276,0.0
0.208000,0.1747764506116277,-0.05698161388544205,0.0,0.000000,3.141593,0.000000,-0.0468099202365821,-0.0022375832462849035,0.0,-0.05819037406201594,-0.026586476073933718,0.0
0.216000,0.17439980497287463,-0.05700000953489892,0.0,0.000000,3.141593,0.000000,-0.04738951252378673,-0.0023168561762487833,0.0,-0.08668865404173046,0.006755224731645154,0.0
0.224000,0.17401800572540224,-0.0570182425183513,0.0,0.000000,3.141593,0.000000,-0.048048938138414245,-0.0022306773410731666,0.0,-0.07816774961514916,0.01478948406225896,0.0
0.232000,0.17363120374195443,-0.0570355289748237,0.0,0.000000,3.141593,0.000000,-0.04864019651762912,-0.00208022443125264,0.0,-0.06964684518856787,0.022823743392872766,0.0
0.240000,0.1732399443604146,-0.05705135471171896,0.0,0.000000,3.141593,0.000000,-0.04916328766143133,-0.001865497446787203,0.0,-0.061125940761986616,0.030858002723486544,0.0
0.248000,0.17284477291866596,-0.05706520553643991,0.0,0.000000,3.141593,0.000000,-0.049618211569820894,-0.0015864963876768552,0.0,-0.052605036335405336,0.03889226205410035,0.0
0.256000,0.17244623475459192,-0.05707656725638941,0.0,0.000000,3.141593,0.000000,-0.05000496824279782,-0.001243221253921597,0.0,-0.04408413190882404,0.046926521384714155,0.0
0.264000,0.17204487520607564,-0.05708492567897027,0.0,0.000000,3.141593,0.000000,-0.050323557680362084,-0.0008356720455214278,0.0,-0.03556322748224276,0.054960780715327964,0.0
0.272000,0.17164123961100056,-0.05708976661158536,0.0,0.000000,3.141593,0.000000,-0.0505739798825137,-0.0003638487624763485,0.0,-0.02704232305566147,0.06299504004594178,0.0
0.280000,0.17123587330724988,-0.0570905758616375,0.0,0.000000,3.141593,0.000000,-0.05075623484925267,0.00017224859521364124,0.0,-0.01852141862908019,0.07102929937655558,0.0
0.288000,0.17082932163270692,-0.057086839236529546,0.0,0.000000,3.141593,0.000000,-0.05087032258057898,0.0007726200275485419,0.0,-0.010000514202498895,0.07906355870716938,0.0
0.296000,0.17042212992525504,-0.057078042543664345,0.0,0.000000,3.141593,0.000000,-0.050916243076492645,0.0014372655345283477,0.0,-0.0014796097759176702,0.08709781803778313,0.0
0.304000,0.1700148435227775,-0.05706367159044472,0.0,0.000000,3.141593,0.000000,-0.050893996336993666,0.0021661851161530687,0.0,0.00704129465066361,0.09513207736839693,0.0
0.312000,0.16960800776315757,-0.0570432121842735,0.0,0.000000,3.141593,0.000000,-0.05080358236208203,0.0029593787724227,0.0,0.015562199077244904,0.10316633669901075,0.0
0.320000,0.16920216798427862,-0.05701615013255357,0.0,0.000000,3.141593,0.000000,-0.05064500115175775,0.0038168465033372417,0.0,0.024083103503826198,0.11120059602962455,0.0
0.328000,0.16879785267855243,-0.056982039728360676,0.0,0.000000,3.141593,0.000000,-0.05043087382431284,0.004687276846272249,0.0,0.02629993476531503,0.09360549296079579,0.0
0.336000,0.1683952038268488,-0.056942006636822105,0.0,0.000000,3.141593,0.000000,-0.05023677147928762,0.005263433662572415,0.0,0.022225651490989883,0.05043371111424563,0.0
0.344000,0.16799397741684063,-0.056898745787772244,0.0,0.000000,3.141593,0.000000,-0.050075263400457,0.00549421622410018,0.0,0.01815136821666474,0.007261929267695491,0.0
0.352000,0.1675939126943983,-0.05685502017524923,0.0,0.000000,3.141593,0.000000,-0.04994634958782099,0.005379624530855546,0.0,0.014077084942339623,-0.03590985257885436,0.0
0.360000,0.1671947489053923,-0.056813592793291276,0.0,0.000000,3.141593,0.000000,-0.04985003004137957,0.004919658582838509,0.0,0.01000280166801448,-0.07908163442540449,0.0
0.368000,0.16679622529569305,-0.05677722663593654,0.0,0.000000,3.141593,0.000000,-0.04978630476113275,0.0041143183800490726,0.0,0.005928518393689335,-0.12225341627195464,0.0
0.376000,0.166398081111171,-0.05674868469722322,0.0,0.000000,3.141593,0.000000,-0.049755173747080536,0.0029636039224872337,0.0,0.0018542351193641844,-0.1654251981185048,0.0
0.384000,0.1660000555976966,-0.05673072997118948,0.0,0.000000,3.141593,0.000000,-0.049756636999222933,0.0014675152101529913,0.0,-0.002220048154960956,-0.20859697996505494,0.0
0.392000,0.16560188800114026,-0.0567261254518735,0.0,0.000000,3.141593,0.000000,-0.049790694517559915,-0.0003739477569536503,0.0,-0.006294331429286103,-0.25176876181160507,0.0
0.400000,0.16520331756737242,-0.05673763413331346,0.0,0.000000,3.141593,0.000000,-0.0498573463020915,-0.0025607849788326902,0.0,-0.010368614703611247,-0.29494054365815525,0.0
0.408000,0.16480408354226359,-0.056768019009547546,0.0,0.000000,3.141593,0.000000,-0.04995659235281769,-0.0050929964554841355,0.0,-0.014442897977936391,-0.3381123255047054,0.0
0.416000,0.16440392517168415,-0.056820043074613934,0.0,0.000000,3.141593,0.000000,-0.05008843266973849,-0.007970582186907984,0.0,-0.018517181252261535,-0.3812841073512555,0.0
0.424000,0.1640025817015046,-0.0568964693225508,0.0,0.000000,3.141593,0.000000,-0.05025286725285388,-0.011193542173104205,0.0,-0.02259146452658665,-0.4244558891978054,0.0
0.432000,0.16359979237759537,-0.05700006074739612,0.0,0.000000,3.141593,0.000000,-0.050449896080077945,-0.014761876268144687,0.0,-0.026655014551483953,-0.46755675333496854,0.0
0.440000,0.1631955193435265,-0.057132107593077054,0.0,0.000000,3.141593,0.000000,-0.05059597555745065,-0.01812358758071957,0.0,-0.009864854791692423,-0.3728710748087517,0.0
0.448000,0.162790614958751,-0.057288018187545746,0.0,0.000000,3.141593,0.000000,-0.05060773375674502,-0.02072781346508472,0.0,0.006925304968099115,-0.2781853962825348,0.0
0.456000,0.16238615379349347,-0.05746173264737652,0.0,0.000000,3.141593,0.000000,-0.05048517067796107,-0.022574553921240133,0.0,0.023715464727890642,-0.1834997177563179,0.0
0.464000,0.16198321041797853,-0.0576471910891437,0.0,0.000000,3.141593,0.000000,-0.050228286321098777,-0.023663808949185808,0.0,0.04050562448768217,-0.088814039230101,0.0
0.472000,0.16158285940243075,-0.057838333629421604,0.0,0.000000,3.141593,0.000000,-0.04983708068615815,-0.023995578548921752,0.0,0.057295784247473704,0.005871639296115783,0.0
0.480000,0.16118617531707483,-0.05802910038478455,0.0,0.000000,3.141593,0.000000,-0.0493115537731392,-0.023569862720447966,0.0,0.07408594400726512,0.10055731782233202,0.0
0.488000,0.16079423273213542,-0.058213431471806874,0.0,0.000000,3.141593,0.000000,-0.04865170558204191,-0.022386661463764435,0.0,0.09087610376705663,0.19524299634854891,0.0
0.496000,0.16040810621783705,-0.05838526700706289,0.0,0.000000,3.141593,0.000000,-0.04785753611286629,-0.02044597477887118,0.0,0.10766626352684819,0.2899286748747658,0.0
0.504000,0.1600288703444044,-0.05853854710712692,0.0,0.000000,3.141593,0.000000,-0.046929045365612335,-0.017747802665768184,0.0,0.1244564232866397,0.3846143534009826,0.0
0.512000,0.15965759968206214,-0.05866721188857329,0.0,0.000000,3.141593,0.000000,-0.04586623334028005,-0.014292145124455445,0.0,0.14124658304643123,0.4793000319271994,0.0
0.520000,0.15929536880103481,-0.058765201467976313,0.0,0.000000,3.141593,0.000000,-0.04466910003686944,-0.010079002154932987,0.0,0.15803674280622276,0.5739857104534163,0.0
0.528000,0.1589432522715471,-0.05882645596191033,0.0,0.000000,3.141593,0.000000,-0.04333764545538049,-0.005108373757200781,0.0,0.1748269025660143,0.6686713889796332,0.0
0.536000,0.15860232466382362,-0.05884491548694963,0.0,0.000000,3.141593,0.000000,-0.0418718695958132,0.0006197400687411592,0.0,0.1916170623258058,0.7633570675058501,0.0
0.544000,0.15827366054808895,-0.05881452015966857,0.0,0.000000,3.141593,0.000000,-0.0402717724581676,0.007105339322892826,0.0,0.20840722208559734,0.858042746032067,0.0
0.552000,0.15795824973745362,-0.058729966458391986,0.0,0.000000,3.141593,0.000000,-0.038578617658986444,0.013980192718273126,0.0,0.21180471216537056,0.8332139368431117,0.0
0.560000,0.15765639217966598,-0.05859210713254672,0.0,0.000000,3.141593,0.000000,-0.03688656770104997,0.02040400600805606,0.0,0.21120777731874582,0.7727393856026216,0.0
0.568000,0.15736805191962674,-0.05840479248602288,0.0,0.000000,3.141593,0.000000,-0.03519929322188651,0.02634402288791508,0.0,0.21061084247212108,0.7122648343621314,0.0
0.576000,0.15709319075350575,-0.05817189289009987,0.0,0.000000,3.141593,0.000000,-0.03351679422149603,0.03180024335785018,0.0,0.21001390762549635,0.6517902831216412,0.0
0.584000,0.15683177047747277,-0.05789727871605708,0.0,0.000000,3.141593,0.000000,-0.03183907069987858,0.03677266741786128,0.0,0.2094169727788716,0.5913157318811519,0.0
0.592000,0.1565837528876976,-0.05758482033517389,0.0,0.000000,3.141593,0.000000,-0.030166122657034108,0.04126129506794854,0.0,0.20882003793224688,0.5308411806406618,0.0
0.600000,0.15634909978035014,-0.0572383881187297,0.0,0.000000,3.141593,0.000000,-0.02849795009296263,0.04526612630811188,0.0,0.20822310308562214,0.4703666294001716,0.0
0.608000,0.15612777295160013,-0.056861852438003894,0.0,0.000000,3.141593,0.000000,-0.02683455300766415,0.04878716113835129,0.0,0.2076261682389974,0.4098920781596815,0.0
0.616000,0.15591973419761745,-0.05645908366427587,0.0,0.000000,3.141593,0.000000,-0.02517593140113867,0.0518243995586668,0.0,0.20702923339237267,0.34941752691919126,0.0
0.624000,0.15572494531457187,-0.05603395216882502,0.0,0.000000,3.141593,0.000000,-0.023522085273386187,0.05437784156905836,0.0,0.20643229854574793,0.2889429756787012,0.0
0.632000,0.15554336809863323,-0.05559032832293073,0.0,0.000000,3.141593,0.000000,-0.021873014624406696,0.05644748716952601,0.0,0.2058353636991232,0.22846842443821103,0.0
0.640000,0.15537496434597128,-0.05513208249787241,0.0,0.000000,3.141593,0.000000,-0.020228719454200208,0.05803333636006974,0.0,0.20523842885249846,0.16799387319772086,0.0
0.648000,0.15521969585275594,-0.05466308506492941,0.0,0.000000,3.141593,0.000000,-0.01858919976276672,0.05913538914068955,0.0,0.20464149400587373,0.1075193219572308,0.0
0.656000,0.15507773794393018,-0.05418720414740403,0.0,0.000000,3.141593,0.000000,-0.016862075059237876,0.0597546180699215,0.0,0.23068938385160137,0.04732528071893867,0.0
0.664000,0.15495054493097352,-0.05370829440375045,0.0,0.000000,3.141593,0.000000,-0.01489598727567058,0.05989261660737592,0.0,0.260832562040222,-0.012825646355333703,0.0
0.672000,0.1548400452019875,-0.053230205501463596,0.0,0.000000,3.141593,0.000000,-0.01268875406659432,0.059549407728236164,0.0,0.29097574022884265,-0.07297657342960609,0.0
0.680000,0.15474816792037605,-0.05275678709987625,0.0,0.000000,3.141593,0.000000,-0.010240375432009095,0.058724991432502226,0.0,0.32111891841746326,-0.13312750050387845,0.0
0.688000,0.15467684224954337,-0.05229188885832115,0.0,0.000000,3.141593,0.000000,-0.0075508513719149024,0.0574193677201741,0.0,0.3512620966060839,-0.19327842757815086,0.0
0.696000,0.15462799735289345,-0.05183936043613105,0.0,0.000000,3.141593,0.000000,-0.004620181886311747,0.055632536591251815,0.0,0.38140527479470454,-0.2534293546524232,0.0
0.704000,0.1546035623938304,-0.05140305149263871,0.0,0.000000,3.141593,0.000000,-0.0014483669751996723,0.05336449804573537,0.0,0.41154845298332476,-0.3135802817266947,0.0
0.712000,0.15460546653575827,-0.05098681168717687,0.0,0.000000,3.141593,0.000000,0.0019645933614214107,0.05061525208362472,0.0,0.4416916311719454,-0.3737312088009671,0.0
0.720000,0.15463563894208116,-0.0505944906790783,0.0,0.000000,3.141593,0.000000,0.00561869912355146,0.047384798704919885,0.0,0.471834809360566,-0.4338821358752394,0.0
0.728000,0.15469600877620307,-0.05022993812767574,0.0,0.000000,3.141593,0.000000,0.009513950311190476,0.04367313790962087,0.0,0.5019779875491865,-0.49403306294951177,0.0
0.736000,0.1547885052015282,-0.04989700369230195,0.0,0.000000,3.141593,0.000000,0.013650346924338454,0.039480269697727687,0.0,0.5321211657378073,-0.5541839900237842,0.0
0.744000,0.15491505738146052,-0.049599537032289684,0.0,0.000000,3.141593,0.000000,0.018027888962995398,0.034806194069240334,0.0,0.5622643439264279,-0.6143349170980565,0.0
0.752000,0.15507759447940417,-0.049341387806971684,0.0,0.000000,3.141593,0.000000,0.022646576427161308,0.029650911024158774,0.0,0.5924075221150484,-0.6744858441723289,0.0
0.760000,0.15527801091535187,-0.04912634728845379,0.0,0.000000,3.141593,0.000000,0.027470886977061904,0.02407411679951957,0.0,0.5983382126716584,-0.6939470416254996,0.0
0.768000,0.1555165422099253,-0.04895541892431461,0.0,0.000000,3.141593,0.000000,0.032114108660217335,0.018725691119653474,0.0,0.5624672081171996,-0.6431593783410234,0.0
0.776000,0.15579107140581822,-0.04882565276038926,0.0,0.000000,3.141593,0.000000,0.03647036230693711,0.013783566746063187,0.0,0.526596203562741,-0.5923717150565473,0.0
0.784000,0.15609930275873912,-0.04873379838622753,0.0,0.000000,3.141593,0.000000,0.0405396479172212,0.00924774367874871,0.0,0.49072519900828226,-0.5415840517720711,0.0
0.792000,0.15643894052439658,-0.04867660539137921,0.0,0.000000,3.141593,0.000000,0.04432196549106963,0.00511822191771004,0.0,0.4548541944538236,-0.490796388487595,0.0
0.800000,0.1568076889584991,-0.04865082336539411,0.0,0.000000,3.141593,0.000000,0.04781731502848238,0.001395001462947184,0.0,0.4189831898993648,-0.4400087252031188,0.0
0.808000,0.15720325231675514,-0.048653201897821984,0.0,0.000000,3.141593,0.000000,0.05102569652945947,-0.0019219176855398666,0.0,0.3831121853449061,-0.3892210619186427,0.0
0.816000,0.15762333485487331,-0.04868049057821267,0.0,0.000000,3.141593,0.000000,0.05394710999400089,-0.004832535527751107,0.0,0.3472411807904474,-0.3384333986341665,0.0
0.824000,0.158065640828562,-0.04872943899611594,0.0,0.000000,3.141593,0.000000,0.05658155542210663,-0.00733685206368654,0.0,0.31137017623598867,-0.2876457353496903,0.0
0.832000,0.15852787449352984,-0.04879679674108158,0.0,0.000000,3.141593,0.000000,0.058929032813776705,-0.009434867293346152,0.0,0.27549917168152993,-0.23685807206521425,0.0
0.840000,0.15900774010548524,-0.048879313402659406,0.0,0.000000,3.141593,0.000000,0.06098954216901109,-0.011126581216729946,0.0,0.23962816712707175,-0.18607040878073877,0.0
0.848000,0.15950294192013684,-0.048973738570399196,0.0,0.000000,3.141593,0.000000,0.06276308348780982,-0.012411993833837946,0.0,0.203757162572613,-0.13528274549626262,0.0
0.856000,0.16001118419319305,-0.04907682183385075,0.0,0.000000,3.141593,0.000000,0.0642496567701729,-0.013291105144670155,0.0,0.16788615801815432,-0.08449508221178648,0.0
0.864000,0.16053017118036245,-0.04918531278256385,0.0,0.000000,3.141593,0.000000,0.06544926201610031,-0.013763915149226535,0.0,0.13201515346369563,-0.03370741892731033,0.0
0.872000,0.16105721433009776,-0.04929587783209178,0.0,0.000000,3.141593,0.000000,0.06619195619374986,-0.013794439682417982,0.0,0.04712836377366354,0.02745897001112197,0.0
0.880000,0.16158727226886882,-0.049404685205542136,0.0,0.000000,3.141593,0.000000,0.06619930119656631,-0.013323721559093825,0.0,-0.045292113069549694,0.09022056081991761,0.0
0.888000,0.16211443151240348,-0.04950771846310002,0.0,0.000000,3.141593,0.000000,0.06546728238463706,-0.0123509107092993,0.0,-0.13771258991276292,0.15298215162871326,0.0
0.896000,0.1626327771501837,-0.04960096086295367,0.0,0.000000,3.141593,0.000000,0.0639958997579621,-0.01087600713303441,0.0,-0.2301330667559761,0.21574374243750888,0.0
0.904000,0.16313639427169158,-0.04968039566329132,0.0,0.000000,3.141593,0.000000,0.06178515331654145,-0.008899010830299155,0.0,-0.32255354359918936,0.27850533324630455,0.0
0.912000,0.16361936796640905,-0.0497420061223012,0.0,0.000000,3.141593,0.000000,0.05883504306037507,-0.006419921801093532,0.0,-0.4149740204424026,0.3412669240551002,0.0
0.920000,0.16407578332381823,-0.04978177549817157,0.0,0.000000,3.141593,0.000000,0.05514556898946299,-0.0034387400454175456,0.0,-0.5073944972856158,0.4040285148638959,0.0
0.928000,0.16449972543340113,-0.04979568704909063,0.0,0.000000,3.141593,0.000000,0.050716731103805215,4.453443672880475e-05,0.0,-0.599814974128829,0.46679010567269147,0.0
0.936000,0.1648852793846398,-0.049779724033246646,0.0,0.000000,3.141593,0.000000,0.04554852940340171,0.0040299016453455225,0.0,-0.6922354509720423,0.5295516964814871,0.0
0.944000,0.16522653026701625,-0.049729869708827854,0.0,0.000000,3.141593,0.000000,0.03964096388825252,0.008517361580432606,0.0,-0.7846559278152555,0.5923132872902828,0.0
0.952000,0.16551756317001254,-0.049642107334022474,0.0,0.000000,3.141593,0.000000,0.03299403455835762,0.013506914241990058,0.0,-0.8770764046584687,0.6550748780990784,0.0
0.960000,0.16575246318311065,-0.049512420167018754,0.0,0.000000,3.141593,0.000000,0.025607741413717106,0.01899855963001779,0.0,-0.9694968815016807,0.7178364689078732,0.0
0.968000,0.16592531539579267,-0.049336791466004934,0.0,0.000000,3.141593,0.000000,0.017482084454330804,0.024992297744515966,0.0,-1.061917358344894,0.7805980597166688,0.0
0.976000,0.16603033440085885,-0.049111290392275936,0.0,0.000000,3.141593,0.000000,0.008749470392906604,0.0314002995775333,0.0,-1.064087702054861,0.7834942592741214,0.0
0.984000,0.16606791820734434,-0.04883608773688962,0.0,0.000000,3.141593,0.000000,0.0008513374544612188,0.03726641957770685,0.0,-0.9104455325564831,0.6830357407692638,0.0
0.992000,0.1660472334997462,-0.04851717079409407,0.0,0.000000,3.141593,0.000000,-0.0058176581279971405,0.04232887142984153,0.0,-0.756803363058105,0.582577222264406,0.0
1.000000,0.16597811337691237,-0.048160968909073586,0.0,0.000000,3.141593,0.000000,-0.011257516354468472,0.046587655133937346,0.0,-0.6031611935597271,0.48211870375954824,0.0
1.008000,0.16587039093769068,-0.047773911427012504,0.0,0.000000,3.141593,0.000000,-0.015468237224952781,0.05004277068999431,0.0,-0.449519024061349,0.3816601852546905,0.0
1.016000,0.16573389928092908,-0.047362427693095115,0.0,0.000000,3.141593,0.000000,-0.01844982073945007,0.052694218098012405,0.0,-0.2958768545629711,0.2812016667498327,0.0
1.024000,0.16557847150547547,-0.04693294705250574,0.0,0.000000,3.141593,0.000000,-0.020202266897960317,0.054541997357991645,0.0,-0.14223468506459302,0.18074314824497495,0.0
1.032000,0.16541394071017768,-0.04649189885042868,0.0,0.000000,3.141593,0.000000,-0.020725575700483556,0.055586108469932005,0.0,0.01140748443378481,0.08028462974011719,0.0
1.040000,0.16525013999388366,-0.04604571243204826,0.0,0.000000,3.141593,0.000000,-0.02001974714701977,0.05582655143383351,0.0,0.16504965393216287,-0.020173888764740577,0.0
1.048000,0.16509690245544134,-0.04560081714254879,0.0,0.000000,3.141593,0.000000,-0.01808478123756896,0.05526332624969616,0.0,0.3186918234305407,-0.12063240726959823,0.0
1.056000,0.16496406119369855,-0.04516364232711456,0.0,0.000000,3.141593,0.000000,-0.014920677972131091,0.05389643291751993,0.0,0.47233399292891876,-0.2210909257744561,0.0
1.064000,0.16486144930750318,-0.044740617330929905,0.0,0.000000,3.141593,0.000000,-0.010527437350706242,0.05172587143730485,0.0,0.6259761624272968,-0.32154944427931376,0.0
1.072000,0.1647988998957032,-0.044338171499179124,0.0,0.000000,3.141593,0.000000,-0.004905059373294343,0.048751641809050915,0.0,0.7796183319256749,-0.42200796278417163,0.0
1.080000,0.16478624605714645,-0.04396273417704653,0.0,0.000000,3.141593,0.000000,0.001946455960104565,0.04497374403275811,0.0,0.9332605014240529,-0.5224664812890293,0.0
1.088000,0.16483296496955488,-0.04362049977181697,0.0,0.000000,3.141593,0.000000,0.009778773275293069,0.040556100356697905,0.0,0.9713893290035521,-0.5466764718751874,0.0
1.096000,0.16494162593727396,-0.04331310291294139,0.0,0.000000,3.141593,0.000000,0.017304759028048997,0.03634832725245194,0.0,0.9101071091854281,-0.5052668041863034,0.0
1.104000,0.16510853375998089,-0.043038043129533715,0.0,0.000000,3.141593,0.000000,0.02434048702225993,0.03247183148971704,0.0,0.8488248893673043,-0.4638571364974195,0.0
1.112000,0.1653297663756073,-0.042792670202861885,0.0,0.000000,3.141593,0.000000,0.030885957257925874,0.02892661306849322,0.0,0.7875426695491803,-0.4224474688085355,0.0
1.120000,0.16560140172208493,-0.042574333914193796,0.0,0.000000,3.141593,0.000000,0.036941169735046825,0.025712671988780467,0.0,0.7262604497310564,-0.3810378011196515,0.0
1.128000,0.1659195177373453,-0.04238038404479737,0.0,0.000000,3.141593,0.000000,0.042506124453622784,0.022830008250578786,0.0,0.6649782299129325,-0.33962813343076753,0.0
1.136000,0.1662801923593201,-0.042208170375940504,0.0,0.000000,3.141593,0.000000,0.04758082141365375,0.02027862185388818,0.0,0.6036960100948086,-0.29821846574188354,0.0
1.144000,0.16667950352594096,-0.04205504268889112,0.0,0.000000,3.141593,0.000000,0.05216526061513973,0.018058512798708647,0.0,0.5424137902766846,-0.25680879805299955,0.0
1.152000,0.16711352917513952,-0.04191835076491713,0.0,0.000000,3.141593,0.000000,0.05625944205808073,0.016169681085040185,0.0,0.4811315704585606,-0.21539913036411557,0.0
1.160000,0.16757834724484746,-0.04179544438528645,0.0,0.000000,3.141593,0.000000,0.059863365742476624,0.014612126712882834,0.0,0.4198493506404385,-0.17398946267523274,0.0
1.168000,0.1680700356729964,-0.041683673331266984,0.0,0.000000,3.141593,0.000000,0.06297703166832765,0.013385849682236509,0.0,0.3585671308223145,-0.13257979498634875,0.0
1.176000,0.1685846723975179,-0.04158038738412664,0.0,0.000000,3.141593,0.000000,0.06560043983563367,0.012490849993101252,0.0,0.29728491100419063,-0.09117012729746476,0.0
1.184000,0.1691183353563437,-0.041482936325133335,0.0,0.000000,3.141593,0.000000,0.0677335902443947,0.01192712764547707,0.0,0.23600269118606665,-0.049760459608580776,0.0
1.192000,0.16966710138519592,-0.041388671988241005,0.0,0.000000,3.141593,0.000000,0.06937306843762567,0.011688323768403747,0.0,0.1676688680782194,-0.021483256489699815,0.0
1.200000,0.17022617630015033,-0.041296568339871075,0.0,0.000000,3.141593,0.000000,0.0702362807603541,0.011248153627877233,0.0,0.0481342126038892,-0.08855927864192849,0.0
1.208000,0.17078833180471145,-0.041210132485334214,0.0,0.000000,3.141593,0.000000,0.07014321583928788,0.010271375310132887,0.0,-0.071400442870441,-0.15563530079415716,0.0
1.216000,0.17134591768092886,-0.0411336572900482,0.0,0.000000,3.141593,0.000000,0.06909387367442704,0.008757988815170715,0.0,-0.19093509834477118,-0.22271132294638585,0.0
1.224000,0.17189128371085216,-0.04107143561943073,0.0,0.000000,3.141593,0.000000,0.06708825426577154,0.006707994142990712,0.0,-0.3104697538191014,-0.28978734509861453,0.0
1.232000,0.17241677967653107,-0.04102776033889959,0.0,0.000000,3.141593,0.000000,0.06412635761332142,0.0041213912935928795,0.0,-0.4300044092934316,-0.35686336725084317,0.0
1.240000,0.17291475536001522,-0.04100692431387249,0.0,0.000000,3.141593,0.000000,0.06020818371707663,0.0009981802669772177,0.0,-0.5495390647677618,-0.42393938940307185,0.0
1.248000,0.17337756054335415,-0.0410132204097672,0.0,0.000000,3.141593,0.000000,0.05533373257703722,-0.0026616389368562757,0.0,-0.669073720242092,-0.4910154115553005,0.0
1.256000,0.17379754500859765,-0.04105094149200144,0.0,0.000000,3.141593,0.000000,0.04950300419320316,-0.006858066317907597,0.0,-0.7886083757164222,-0.5580914337075291,0.0
1.264000,0.17416705853779532,-0.04112438042599297,0.0,0.000000,3.141593,0.000000,0.042715998565574446,-0.01159110187617675,0.0,-0.9081430311907523,-0.6251674558597577,0.0
1.272000,0.17447845091299674,-0.04123783007715952,0.0,0.000000,3.141593,0.000000,0.034972715694151106,-0.01686074561166373,0.0,-1.0276776866650825,-0.6922434780119866,0.0
1.280000,0.1747240719162516,-0.04139558331091884,0.0,0.000000,3.141593,0.000000,0.026273155578933123,-0.02266699752436854,0.0,-1.1472123421394127,-0.7593195001642152,0.0
1.288000,0.17489627132960955,-0.04160193299268867,0.0,0.000000,3.141593,0.000000,0.016617318219920477,-0.029009857614291187,0.0,-1.2667469976137429,-0.8263955223164439,0.0
1.296000,0.17498739893512025,-0.04186117198788675,0.0,0.000000,3.141593,0.000000,0.006005203617113208,-0.03588932588143165,0.0,-1.3862816530880733,-0.8934715444686725,0.0
1.304000,0.1749903782345006,-0.04217717631910891,0.0,0.000000,3.141593,0.000000,-0.0051632719584640795,-0.04301483842074845,0.0,-1.3199729046210753,-0.8255208395586409,0.0
1.312000,0.1749092426897554,-0.04254574993566976,0.0,0.000000,3.141593,0.000000,-0.01481939374402929,-0.04888334601058592,0.0,-1.0940575417702247,-0.6416060579007263,0.0
1.320000,0.17475808746233695,-0.04295538633993625,0.0,0.000000,3.141593,0.000000,-0.022668192626787688,-0.053280535347160075,0.0,-0.8681421789193741,-0.4576912762428119,0.0
1.328000,0.17455137113546765,-0.043394314985882275,0.0,0.000000,3.141593,0.000000,-0.028709668606739285,-0.05620640643047091,0.0,-0.6422268160685234,-0.2737764945848974,0.0
1.336000,0.17430355229236996,-0.04385076532748174,0.0,0.000000,3.141593,0.000000,-0.03294382168388407,-0.057660959260518445,0.0,-0.4163114532176728,-0.08986171292698297,0.0
1.344000,0.1740290895162663,-0.04431296681870854,0.0,0.000000,3.141593,0.000000,-0.03537065185822205,-0.05764419383730265,0.0,-0.19039609036682204,0.09405306873093155,0.0
1.352000,0.1737424413903792,-0.04476914891353656,0.0,0.000000,3.141593,0.000000,-0.03599015912975322,-0.05615611016082353,0.0,0.03551927248402853,0.2779678503888461,0.0
1.360000,0.17345806649793105,-0.04520754106593969,0.0,0.000000,3.141593,0.000000,-0.03480234349847759,-0.05319670823108111,0.0,0.2614346353348793,0.4618826320467606,0.0
1.368000,0.17319042342214436,-0.04561637272989182,0.0,0.000000,3.141593,0.000000,-0.03180720496439515,-0.048765988048075345,0.0,0.48734999818572966,0.6457974137046749,0.0
1.376000,0.17295397074624155,-0.04598387335936686,0.0,0.000000,3.141593,0.000000,-0.02700474352750591,-0.0428639496118063,0.0,0.7132653610365804,0.8297121953625894,0.0
1.384000,0.17276316705344508,-0.046298272408338684,0.0,0.000000,3.141593,0.000000,-0.020394959187809855,-0.03549059292227391,0.0,0.9391807238874312,1.013626977020504,0.0
1.392000,0.17263247092697745,-0.0465477993307812,0.0,0.000000,3.141593,0.000000,-0.011977851945306997,-0.026645917979478212,0.0,1.1650960867382816,1.1975417586784185,0.0
1.400000,0.17257634095006102,-0.046720683580668304,0.0,0.000000,3.141593,0.000000,-0.001753421799997379,-0.0163299247834192,0.0,1.3910114495891324,1.381456540336333,0.0
1.408000,0.17260922656032818,-0.046805161432192335,0.0,0.000000,3.141593,0.000000,0.010250119659608802,-0.004563651801167149,0.0,1.5589102372556571,1.522106129532863,0.0
1.416000,0.1727384318515313,-0.046794797717413565,0.0,0.000000,3.141593,0.000000,0.021716103932937703,0.006925272126242575,0.0,1.3075858310765658,1.3501248523195655,0.0
1.424000,0.17295132263592333,-0.046698026012086336,0.0,0.000000,3.141593,0.000000,0.03117149295683387,0.017038345835945913,0.0,1.0562614248974742,1.1781435751062679,0.0
1.432000,0.1732318141515088,-0.046525853117952314,0.0,0.000000,3.141593,0.000000,0.0386162867312973,0.025775569327942872,0.0,0.8049370187183826,1.00616229789297,0.0
1.440000,0.17356382163629225,-0.04628928583675313,0.0,0.000000,3.141593,0.000000,0.04405048525632801,0.03313694260223345,0.0,0.5536126125392911,0.8341810206796725,0.0
1.448000,0.17393126032827824,-0.04599933097023046,0.0,0.000000,3.141593,0.000000,0.04747408853192597,0.03912246565881765,0.0,0.3022882063601995,0.6621997434663749,0.0
1.456000,0.17431804546547128,-0.045666995320125935,0.0,0.000000,3.141593,0.000000,0.0488870965580912,0.043732138497695465,0.0,0.05096380018110791,0.4902184662530773,0.0
1.464000,0.1747080922858759,-0.04530328568818122,0.0,0.000000,3.141593,0.000000,0.048289509334823705,0.04696596111886689,0.0,-0.20036060599798367,0.3182371890397797,0.0
1.472000,0.1750853160274966,-0.04491920887613795,0.0,0.000000,3.141593,0.000000,0.04568132686212345,0.04882393352233195,0.0,-0.45168501217707524,0.1462559118264819,0.0
1.480000,0.17543363192833805,-0.044525771685737785,0.0,0.000000,3.141593,0.000000,0.041062549139990495,0.049306055708090615,0.0,-0.7030094183561668,-0.02572536538681547,0.0
1.488000,0.17573695522640465,-0.044133980918722386,0.0,0.000000,3.141593,0.000000,0.034433176168424784,0.04841232767614288,0.0,-0.9543338245352584,-0.19770664260011328,0.0
1.496000,0.175979201159701,-0.04375484337683339,0.0,0.000000,3.141593,0.000000,0.025793207947426344,0.04614274942648877,0.0,-1.20565823071435,-0.3696879198134111,0.0
1.504000,0.17614428496623163,-0.04339936586181244,0.0,0.000000,3.141593,0.000000,0.015142644476995176,0.04249732095912831,0.0,-1.4569826368934415,-0.5416691970267085,0.0
1.512000,0.17621636853744432,-0.04307841043780242,0.0,0.000000,3.141593,0.000000,0.0027164565335716993,0.03761392441966,0.0,-1.559079405949403,-0.6260828749800357,0.0
1.520000,0.17618957250347164,-0.04279699532624312,0.0,0.000000,3.141593,0.000000,-0.009245108183094111,0.032807149495334025,0.0,-1.4313117732170473,-0.5756108561014572,0.0
1.528000,0.17607117251601312,-0.04255241930947433,0.0,0.000000,3.141593,0.000000,-0.020184531837901074,0.028404150722036677,0.0,-1.3035441404846915,-0.5251388372228788,0.0
1.536000,0.17586934570356355,-0.042341452178287796,0.0,0.000000,3.141593,0.000000,-0.030101814430849194,0.024404928099767957,0.0,-1.1757765077523354,-0.47466681834430036,0.0
1.544000,0.17559226919461784,-0.04216086372347529,0.0,0.000000,3.141593,0.000000,-0.038996955961938466,0.020809481628527866,0.0,-1.0480088750199794,-0.4241947994657219,0.0
1.552000,0.17524812011767085,-0.04200742373582861,0.0,0.000000,3.141593,0.000000,-0.04686995643116888,0.0176178113083164,0.0,-0.9202412422876236,-0.3737227805871434,0.0
1.560000,0.1748450756012174,-0.041877902006139486,0.0,0.000000,3.141593,0.000000,-0.05372081583854045,0.01482991713913356,0.0,-0.7924736095552677,-0.323250761708565,0.0
1.568000,0.17439131277375247,-0.04176906832519973,0.0,0.000000,3.141593,0.000000,-0.05954953418405318,0.012445799120979355,0.0,-0.6647059768229118,-0.27277874282998654,0.0
1.576000,0.17389500876377084,-0.04167769248380108,0.0,0.000000,3.141593,0.000000,-0.06435611146770705,0.010465457253853776,0.0,-0.5369383440905557,-0.2223067239514081,0.0
1.584000,0.17336434069976742,-0.041600544272735324,0.0,0.000000,3.141593,0.000000,-0.06814054768950206,0.008888891537756828,0.0,-0.40917071135819993,-0.1718347050728296,0.0
1.592000,0.1728074857102371,-0.041534393482794224,0.0,0.000000,3.141593,0.000000,-0.07090284284943824,0.007716101972688499,0.0,-0.2814030786258439,-0.12136268619425117,0.0
1.600000,0.17223262092367472,-0.04147600990476956,0.0,0.000000,3.141593,0.000000,-0.07264299694751555,0.006947088558648798,0.0,-0.15363544589348788,-0.07089066731567273,0.0
1.608000,0.17164792346857513,-0.041422163329453095,0.0,0.000000,3.141593,0.000000,-0.07336100998373404,0.006581851295637729,0.0,-0.02586781316113207,-0.02041864843709429,0.0
1.616000,0.17106149279848998,-0.04136982859623926,0.0,0.000000,3.141593,0.000000,-0.07310730807359497,0.006487273839052337,0.0,0.08007559487024914,-0.02755886058419952,0.0
1.624000,0.17048015660230087,-0.041319337786347714,0.0,0.000000,3.141593,0.000000,-0.07210675980320569,0.006069741473559397,0.0,0.17006147272707264,-0.0768242307890357,0.0
1.632000,0.16990970434036629,-0.04127376372722668,0.0,0.000000,3.141593,0.000000,-0.07038632450996181,0.005258086146427766,0.0,0.2600473505838961,-0.12608960099387187,0.0
1.640000,0.16935589510886906,-0.041236259402569246,0.0,0.000000,3.141593,0.000000,-0.06794600219386335,0.004052307857657445,0.0,0.3500332284407196,-0.17535497119870805,0.0
1.648000,0.16882448800399205,-0.04120997779606852,0.0,0.000000,3.141593,0.000000,-0.0647857928549103,0.0024524066072484346,0.0,0.4400191062975431,-0.22462034140354423,0.0
1.656000,0.1683212421219181,-0.04119807189141764,0.0,0.000000,3.141593,0.000000,-0.060905696493102644,0.00045838239520073435,0.0,0.5300049841543666,-0.2738857116083804,0.0
1.664000,0.16785191655883003,-0.041203694672309686,0.0,0.000000,3.141593,0.000000,-0.05630571310844042,-0.0019297647784856566,0.0,0.61999086201119,-0.32315108181321656,0.0
1.672000,0.16742227041091068,-0.04122999912243778,0.0,0.000000,3.141593,0.000000,-0.05098584270092377,-0.004712034913810653,0.0,0.709976739868011,-0.3724164520180514,0.0
1.680000,0.1670380627743429,-0.041280138225495026,0.0,0.000000,3.141593,0.000000,-0.04494608527055236,-0.007888428010774412,0.0,0.7999626177248345,-0.4216818222228876,0.0
1.688000,0.16670505274530947,-0.04135726496517454,0.0,0.000000,3.141593,0.000000,-0.03818644081732639,-0.01145894406937686,0.0,0.8899484955816581,-0.47094719242772376,0.0
1.696000,0.16642899941999328,-0.041464532325169424,0.0,0.000000,3.141593,0.000000,-0.030706909341245828,-0.015423583089617996,0.0,0.9799343734384816,-0.5202125626325598,0.0
1.704000,0.16621566189457715,-0.041605093289172786,0.0,0.000000,3.141593,0.000000,-0.022507490842310685,-0.01978234507149782,0.0,1.069920251295305,-0.569477932837396,0.0
1.712000,0.1660707992652439,-0.04178210084087776,0.0,0.000000,3.141593,0.000000,-0.013588185320520946,-0.02453523001501634,0.0,1.1599061291521287,-0.6187433030422322,0.0
1.720000,0.16600017062817646,-0.04199870796397742,0.0,0.000000,3.141593,0.000000,-0.003948992775876611,-0.029682237920173552,0.0,1.249892007008952,-0.6680086732470685,0.0
1.728000,0.16600654724980832,-0.04225672875175025,0.0,0.000000,3.141593,0.000000,0.0052835238759802155,-0.034718539390422264,0.0,1.0566970904549193,-0.5903765683342321,0.0
1.736000,0.16608055248474085,-0.04255253363967755,0.0,0.000000,3.141593,0.000000,0.01295812698590848,-0.03912824791855658,0.0,0.8619536870271445,-0.5120505636993484,0.0
1.744000,0.16620972275564308,-0.04288110976368162,0.0,0.000000,3.141593,0.000000,0.01907478286841454,-0.04291134840961184,0.0,0.6672102835993697,-0.4337245590644647,0.0
1.752000,0.16638159448469567,-0.0432374442594658,0.0,0.000000,3.141593,0.000000,0.0236334915234984,-0.046067840863588026,0.0,0.4724668801715949,-0.355398554429581,0.0
1.760000,0.16658370409407927,-0.04361652426273348,0.0,0.000000,3.141593,0.000000,0.02663425295116006,-0.04859772528048514,0.0,0.27772347674382014,-0.2770725497946973,0.0
1.768000,0.16680358800597445,-0.044013336909188024,0.0,0.000000,3.141593,0.000000,0.028077067151399526,-0.05050100166030319,0.0,0.08298007331604529,-0.1987465451598136,0.0
1.776000,0.16702878264256188,-0.04442286933453279,0.0,0.000000,3.141593,0.000000,0.02796193412421679,-0.05177767000304217,0.0,-0.11176333011172934,-0.1204205405249299,0.0
1.784000,0.16724682442602215,-0.04484010867447115,0.0,0.000000,3.141593,0.000000,0.026288853869611856,-0.05242773030870206,0.0,-0.306506733539504,-0.04209453589004619,0.0
1.792000,0.16744524977853584,-0.04526004206470648,0.0,0.000000,3.141593,0.000000,0.02305782638758473,-0.0524511825772829,0.0,-0.5012501369672788,0.036231468744837514,0.0
1.800000,0.16761159512228369,-0.04567765664094214,0.0,0.000000,3.141593,0.000000,0.01826885167813541,-0.05184802680878467,0.0,-0.6959935403950537,0.11455747337972133,0.0
1.808000,0.16773339687944624,-0.04608793953888149,0.0,0.000000,3.141593,0.000000,0.011921929741263854,-0.05061826300320736,0.0,-0.8907369438228283,0.19288347801460493,0.0
1.816000,0.16779819147220412,-0.04648587789422791,0.0,0.000000,3.141593,0.000000,0.004017060576970141,-0.04876189116055099,0.0,-1.085480347250603,0.2712094826494885,0.0
1.824000,0.16779353366527391,-0.04686646197957314,0.0,0.000000,3.141593,0.000000,-0.005407233145480844,-0.046285499318244966,0.0,-1.226287332099492,0.340311434247891,0.0
1.832000,0.16771217942425512,-0.04722557156210387,0.0,0.000000,3.141593,0.000000,-0.014788224762700489,-0.04345634054952657,0.0,-1.1189605722054168,0.366978257931707,0.0
1.840000,0.16755921170661514,-0.047561194536126984,0.0,0.000000,3.141593,0.000000,-0.02331060230076753,-0.04041384719133765,0.0,-1.0116338123113418,0.393645081615523,0.0
1.848000,0.16734149942498724,-0.04787162422492669,0.0,0.000000,3.141593,0.000000,-0.030974365759681974,-0.0371580192436782,0.0,-0.9043070524172665,0.420311905299339,0.0
1.856000,0.16706591149200464,-0.04815515395178724,0.0,0.000000,3.141593,0.000000,-0.0377795151394438,-0.03368885670654822,0.0,-0.7969802925231915,0.44697872898315494,0.0
1.864000,0.16673931682030052,-0.04841007703999287,0.0,0.000000,3.141593,0.000000,-0.043726050440053045,-0.03000635957994771,0.0,-0.6896535326291162,0.47364555266697095,0.0
1.872000,0.1663685843225082,-0.048634686812827815,0.0,0.000000,3.141593,0.000000,-0.04881397166150968,-0.02611052786387668,0.0,-0.5823267727350412,0.500312376350787,0.0
1.880000,0.16596058291126078,-0.0488272765935763,0.0,0.000000,3.141593,0.000000,-0.05304327880381371,-0.022001361558335118,0.0,-0.47500001284096594,0.526979200034603,0.0
1.888000,0.16552218149919157,-0.04898613970552259,0.0,0.000000,3.141593,0.000000,-0.056413971866965146,-0.017678860663323026,0.0,-0.3676732529468909,0.5536460237184189,0.0
1.896000,0.16506024899893376,-0.04910956947195089,0.0,0.000000,3.141593,0.000000,-0.058926050850963974,-0.013143025178840407,0.0,-0.26034649305281565,0.5803128474022349,0.0
1.904000,0.16458165432312055,-0.04919585921614545,0.0,0.000000,3.141593,0.000000,-0.060579515755810186,-0.00839385510488726,0.0,-0.15301973315874062,0.6069796710860509,0.0
1.912000,0.1640932663843852,-0.049243302261390495,0.0,0.000000,3.141593,0.000000,-0.06137436658150382,-0.003431350441463584,0.0,-0.04569297326466537,0.6336464947698668,0.0
1.920000,0.1636019540953609,-0.04925019193097027,0.0,0.000000,3.141593,0.000000,-0.061310603328044846,0.0017444888114304738,0.0,0.06163378662940677,0.660313318453682,0.0
1.928000,0.1631145863686809,-0.04921482154816902,0.0,0.000000,3.141593,0.000000,-0.06038822599543328,0.007133662653795201,0.0,0.16896054652348202,0.6869801421374981,0.0
1.936000,0.16263755219141507,-0.049136171785641565,0.0,0.000000,3.141593,0.000000,-0.05884337254003916,0.012397974314933795,0.0,0.19882927444802856,0.602711575851373,0.0
1.944000,0.1621732285003807,-0.04901896937423765,0.0,0.000000,3.141593,0.000000,-0.05722995615561062,0.01674410934319425,0.0,0.2045248216591048,0.4838221812137408,0.0
1.952000,0.16172199439793247,-0.04887080234323606,0.0,0.000000,3.141593,0.000000,-0.05557097539349348,0.020139129214353655,0.0,0.21022036887018103,0.3649327865761086,0.0
1.960000,0.16128421439909196,-0.0486992796138936,0.0,0.000000,3.141593,0.000000,-0.053866430253687723,0.022583033928412,0.0,0.2159159160812573,0.24604339193847635,0.0
1.968000,0.16086025301888063,-0.04851201010746707,0.0,0.000000,3.141593,0.000000,-0.05211632073619336,0.02407582348536928,0.0,0.22161146329233353,0.1271539973008441,0.0
1.976000,0.16045047477232002,-0.048316602745213294,0.0,0.000000,3.141593,0.000000,-0.05032064684101039,0.024617497885225503,0.0,0.2273070105034098,0.008264602663211829,0.0
1.984000,0.16005524417443165,-0.04812066644838907,0.0,0.000000,3.141593,0.000000,-0.0484794085681388,0.024208057127980673,0.0,0.23300255771448602,-0.11062479197442032,0.0
1.992000,0.15967492574023698,-0.04793181013825121,0.0,0.000000,3.141593,0.000000,-0.046592605917578606,0.02284750121363477,0.0,0.23869810492556226,-0.2295141866120527,0.0
2.000000,0.15930988398475757,-0.04775764273605651,0.0,0.000000,3.141593,0.000000,-0.044660238889329795,0.020535830142187822,0.0,0.24439365213663852,-0.34840358124968485,0.0
2.008000,0.15896048342301486,-0.0476057731630618,0.0,0.000000,3.141593,0.000000,-0.042682307483392384,0.01727304391363982,0.0,0.2500891993477148,-0.4672929758873172,0.0
2.016000,0.15862708857003044,-0.04748381034052388,0.0,0.000000,3.141593,0.000000,-0.04065881169976636,0.013059142527990744,0.0,0.255784746558791,-0.5861823705249494,0.0
2.024000,0.15831006394082578,-0.04739936318969955,0.0,0.000000,3.141593,0.000000,-0.03858975153845173,0.007894125985240627,0.0,0.26148029376986726,-0.7050717651625817,0.0
2.032000,0.1580097740504224,-0.04736004063184563,0.0,0.000000,3.141593,0.000000,-0.036475126999448486,0.0017779942853894254,0.0,0.2671758409809435,-0.8239611598002139,0.0
2.040000,0.15772658341384177,-0.04737345158821893,0.0,0.000000,3.141593,0.000000,-0.034314938082756624,-0.005289252571562819,0.0,0.2728713881920197,-0.942850554437846,0.0
2.048000,0.15746082159125335,-0.047446895175461315,0.0,0.000000,3.141593,0.000000,-0.03213382871431285,-0.013089195638636475,0.0,0.2669839352512121,-0.9590798979724476,0.0
2.056000,0.15721212291508907,-0.04758150871153337,0.0,0.000000,3.141593,0.000000,-0.03006228187399436,-0.02046536515785682,0.0,0.25090277482840945,-0.8849624818326373,0.0
2.064000,0.15697948201651377,-0.04777275984644271,0.0,0.000000,3.141593,0.000000,-0.028119384317058294,-0.027248595347958683,0.0,0.23482161440560684,-0.8108450656928268,0.0
2.072000,0.15676186970126044,-0.04801590506555639,0.0,0.000000,3.141593,0.000000,-0.026305136043504648,-0.03343888620894206,0.0,0.21874045398280417,-0.7367276495530164,0.0
2.080000,0.15655825677506202,-0.04830620085424148,0.0,0.000000,3.141593,0.000000,-0.02461953705333342,-0.03903623774080696,0.0,0.20265929356000156,-0.662610233413206,0.0
2.088000,0.1563676140436514,-0.04863890369786499,0.0,0.000000,3.141593,0.000000,-0.02306258734654462,-0.04404064994355337,0.0,0.1865781331371989,-0.5884928172733956,0.0
2.096000,0.1561889123127616,-0.049009270081794,0.0,0.000000,3.141593,0.000000,-0.02163428692313824,-0.0484521228171813,0.0,0.1704969727143963,-0.5143754011335852,0.0
2.104000,0.15602112238812552,-0.04941255649139557,0.0,0.000000,3.141593,0.000000,-0.02033463578311428,-0.05227065636169074,0.0,0.15441581229159365,-0.4402579849937748,0.0
2.112000,0.1558632150754761,-0.04984401941203674,0.0,0.000000,3.141593,0.000000,-0.019163633926472738,-0.0554962505770817,0.0,0.138334651868791,-0.3661405688539644,0.0
2.120000,0.15571416118054626,-0.050298915329084565,0.0,0.000000,3.141593,0.000000,-0.018121281353213618,-0.05812890546335417,0.0,0.12225349144598835,-0.2920231527141539,0.0
2.128000,0.15557293150906898,-0.0507725007279061,0.0,0.000000,3.141593,0.000000,-0.01720757806333692,-0.06016862102050817,0.0,0.10617233102318574,-0.21790573657434353,0.0
2.136000,0.15543849686677721,-0.05126003209386838,0.0,0.000000,3.141593,0.000000,-0.016422524056842646,-0.06161539724854367,0.0,0.09009117060038307,-0.14378832043453316,0.0
2.144000,0.1553098280594038,-0.05175676591233848,0.0,0.000000,3.141593,0.000000,-0.01576611933373079,-0.062469234147460695,0.0,0.07401001017758047,-0.06967090429472267,0.0
2.152000,0.1551858969726814,-0.0522579590107049,0.0,0.000000,3.141593,0.000000,-0.015234857120300758,-0.06273124226570209,0.0,0.06551987840172499,0.002042534353739087,0.0
2.160000,0.15506664432311085,-0.05275917503213415,0.0,0.000000,3.141593,0.000000,-0.01451210886196622,-0.06250169364197898,0.0,0.1151671861819094,0.05534462157703608,0.0
2.168000,0.15495476237345593,-0.05325684899778246,0.0,0.000000,3.141593,0.000000,-0.013392182141390208,-0.061845728320469515,0.0,0.1648144939620938,0.10864670880033309,0.0
2.176000,0.15485342855141457,-0.05374756957406756,0.0,0.000000,3.141593,0.000000,-0.011875076958572716,-0.060763346301173665,0.0,0.2144618017422782,0.16194879602363008,0.0
2.184000,0.15476582028468475,-0.05422792542740715,0.0,0.000000,3.141593,0.000000,-0.009960793313513752,-0.059254547584091426,0.0,0.2641091095224626,0.21525088324692707,0.0
2.192000,0.15469511500096433,-0.05469450522421893,0.0,0.000000,3.141593,0.000000,-0.007649331206213312,-0.057319332169222824,0.0,0.31375641730264703,0.2685529704702241,0.0
2.200000,0.15464449012795128,-0.05514389763092062,0.0,0.000000,3.141593,0.000000,-0.004940690636671397,-0.05495770005656783,0.0,0.36340372508283136,0.3218550576935211,0.0
2.208000,0.15461712309334358,-0.055572691313929924,0.0,0.000000,3.141593,0.000000,-0.0018348716048880043,-0.05216965124612648,0.0,0.4130510328630158,0.37515714491681806,0.0
2.216000,0.1546161913248391,-0.05597747493966455,0.0,0.000000,3.141593,0.000000,0.0016681258891368626,-0.04895518573789875,0.0,0.46269834064320026,0.42845923214011505,0.0
2.224000,0.15464487225013573,-0.056354837174542205,0.0,0.000000,3.141593,0.000000,0.005568301845403205,-0.04531430353188463,0.0,0.5123456484233846,0.48176131936341204,0.0
2.232000,0.1547063432969315,-0.05670136668498061,0.0,0.000000,3.141593,0.000000,0.009865656263911022,-0.041247004628084144,0.0,0.5619929562035689,0.535063406586709,0.0
2.240000,0.1548037818929243,-0.05701365213739745,0.0,0.000000,3.141593,0.000000,0.014560189144660316,-0.036753289026497285,0.0,0.6116402639837534,0.588365493810006,0.0
2.248000,0.15494036546581202,-0.057288282198210465,0.0,0.000000,3.141593,0.000000,0.019651900487651083,-0.03183315672712404,0.0,0.6612875717639378,0.641667581033303,0.0
2.256000,0.15511927144329268,-0.057521845533837344,0.0,0.000000,3.141593,0.000000,0.025140790292883332,-0.026486607729964425,0.0,0.7109348795441223,0.6949696682566,0.0
2.264000,0.15534338204890763,-0.0577112099206454,0.0,0.000000,3.141593,0.000000,0.030846999541112665,-0.02088369533773907,0.0,0.6875270578783792,0.679199511590457,0.0
2.272000,0.15561142241177367,-0.057857173589196474,0.0,0.000000,3.141593,0.000000,0.036071028761039,-0.01568578307753523,0.0,0.6184802471032027,0.6202785534605014,0.0
2.280000,0.15591904551045438,-0.05796343943032607,0.0,0.000000,3.141593,0.000000,0.04074268349476392,-0.010959238482371039,0.0,0.5494334363280262,0.5613575953305459,0.0
2.288000,0.15626183234906002,-0.05803377838535451,0.0,0.000000,3.141593,0.000000,0.044861963742287424,-0.006704061552246489,0.0,0.4803866255528498,0.5024366372005902,0.0
2.296000,0.1566353639317011,-0.05807196139560212,0.0,0.000000,3.141593,0.000000,0.048428869503609515,-0.0029202522871615887,0.0,0.4113398147776733,0.44351567907063455,0.0
2.304000,0.15703522126248792,-0.0580817594023892,0.0,0.000000,3.141593,0.000000,0.051443400778730206,0.00039218931288366975,0.0,0.3422930040024968,0.3845947209406789,0.0
2.312000,0.1574569853455309,-0.05806694334703608,0.0,0.000000,3.141593,0.000000,0.05390555756764935,0.0032332632478891364,0.0,0.27324619322732413,0.3256737628107266,0.0
2.320000,0.15789623718494042,-0.05803128417086308,0.0,0.000000,3.141593,0.000000,0.05581533987036724,0.005602969517855131,0.0,0.20419938245214764,0.266752804680771,0.0
2.328000,0.15834855778482687,-0.057978552815190515,0.0,0.000000,3.141593,0.000000,0.05717274768688371,0.007501308122781478,0.0,0.13515257167697114,0.20783184655081532,0.0
2.336000,0.1588095281493007,-0.057912520221338686,0.0,0.000000,3.141593,0.000000,0.05797778101719879,0.008928279062668177,0.0,0.06610576090179465,0.14891088842085975,0.0
2.344000,0.1592747292824722,-0.05783695733062792,0.0,0.000000,3.141593,0.000000,0.05823043986131244,0.009883882337515235,0.0,-0.00294104987338184,0.08998993029090407,0.0
2.352000,0.1597397421884518,-0.057755635084378545,0.0,0.000000,3.141593,0.000000,0.05793072421922468,0.010368117947322647,0.0,-0.07198786064855833,0.031068972160948505,0.0
2.360000,0.16020014787134992,-0.05767232442391087,0.0,0.000000,3.141593,0.000000,0.057078634090935505,0.010380985892090397,0.0,-0.14103467142373483,-0.027851985969007176,0.0
2.368000,0.16065152879111524,-0.05759079533129063,0.0,0.000000,3.141593,0.000000,0.05567889660370632,0.009925600884775409,0.0,-0.19984878356399977,-0.08003059990987212,0.0
2.376000,0.16109077339055358,-0.05751395727404659,0.0,0.000000,3.141593,0.000000,0.05415832671621783,0.009283192096601318,0.0,-0.18029368830812287,-0.08057159713365047,0.0
2.384000,0.16151847919394016,-0.05744227579901911,0.0,0.000000,3.141593,0.000000,0.05279419759077635,0.008636455330637,0.0,-0.16073859305224597,-0.08111259435742883,0.0
2.392000,0.16193589772737144,-0.057375785530030504,0.0,0.000000,3.141593,0.000000,0.051586509227381894,0.007985390586882456,0.0,-0.14118349779636907,-0.08165359158120719,0.0
2.400000,0.16234428051694375,-0.057314521090903105,0.0,0.000000,3.141593,0.000000,0.05053526162603445,0.007329997865337684,0.0,-0.12162840254049216,-0.08219458880498555,0.0
2.408000,0.16274487908875346,-0.05725851710545921,0.0,0.000000,3.141593,0.000000,0.04964045478673402,0.006670277166002685,0.0,-0.10207330728461526,-0.08273558602876391,0.0
2.416000,0.16313894496889697,-0.057207808197521165,0.0,0.000000,3.141593,0.000000,0.0489020887094806,0.00600622848887746,0.0,-0.08251821202873837,-0.08327658325254227,0.0
2.424000,0.1635277296834706,-0.05716242899091128,0.0,0.000000,3.141593,0.000000,0.0483201633942742,0.005337851833962008,0.0,-0.06296311677286148,-0.08381758047632062,0.0
2.432000,0.1639124847585708,-0.057122414109451874,0.0,0.000000,3.141593,0.000000,0.04789467884111481,0.004665147201256329,0.0,-0.043408021516984585,-0.08435857770009898,0.0
2.440000,0.1642944617202939,-0.057087798176965285,0.0,0.000000,3.141593,0.000000,0.047625635050002446,0.003988114590760423,0.0,-0.023852926261107688,-0.08489957492387734,0.0
2.448000,0.1646749120947363,-0.057058615817273825,0.0,0.000000,3.141593,0.000000,0.047513032020937096,0.00330675400247429,0.0,-0.00429783100523079,-0.08544057214765571,0.0
2.456000,0.16505508740799435,-0.057034901654199804,0.0,0.000000,3.141593,0.000000,0.047556869753918755,0.0026210654363979305,0.0,0.015257264250646108,-0.08598156937143406,0.0
2.464000,0.16543623918616446,-0.05701669031156557,0.0,0.000000,3.141593,0.000000,0.04775714824894744,0.0019310488925313439,0.0,0.034812359506523005,-0.08652256659521243,0.0
2.472000,0.16581961895534297,-0.057004016413193415,0.0,0.000000,3.141593,0.000000,0.048113867506023124,0.0012367043708745305,0.0,0.0543674547623999,-0.08706356381899077,0.0
2.480000,0.16620643507596844,-0.056996888507939776,0.0,0.000000,3.141593,0.000000,0.04859662420845787,0.0005563975233338772,0.0,0.05964636052948519,-0.07898078063776642,0.0
2.488000,0.16659703932351855,-0.05699479770962654,0.0,0.000000,3.141593,0.000000,0.04904475897224454,-1.28225566495342e-05,0.0,0.052387330417184595,-0.06332423935808634,0.0
2.496000,0.16699099636021533,-0.05699675966263221,0.0,0.000000,3.141593,0.000000,0.04943482149513282,-0.0004567903063955052,0.0,0.045128300304884,-0.047667698078406276,0.0
2.504000,0.1673878416081316,-0.0570017723483149,0.0,0.000000,3.141593,0.000000,0.04976681177712269,-0.0007755057259040353,0.0,0.03786927019258341,-0.032011156798726195,0.0
2.512000,0.16778711048934022,-0.0570088337480327,0.0,0.000000,3.141593,0.000000,0.050040729818214155,-0.0009689688151751246,0.0,0.03061024008028282,-0.01635461551904613,0.0
2.520000,0.16818833842591396,-0.05701694184314374,0.0,0.000000,3.141593,0.000000,0.05025657561840721,-0.001037179574208774,0.0,0.023351209967982234,-0.0006980742393660477,0.0
2.528000,0.16859106083992567,-0.05702509461500608,0.0,0.000000,3.141593,0.000000,0.05041434917770187,-0.0009801380030049819,0.0,0.016092179855681635,0.014958467040314019,0.0
2.536000,0.16899481315344814,-0.05703229004497785,0.0,0.000000,3.141593,0.000000,0.05051405049609812,-0.000797844101563749,0.0,0.00883314974338105,0.0306150083199941,0.0
2.544000,0.16939913078855418,-0.057037526114417134,0.0,0.000000,3.141593,0.000000,0.05055567957359596,-0.0004902978698850752,0.0,0.0015741196310804506,0.04627154959967418,0.0
2.552000,0.16980354916731663,-0.057039800804682045,0.0,0.000000,3.141593,0.000000,0.05053923641019541,-5.7499307968961015e-05,0.0,-0.0056849104812201345,0.06192809087935426,0.0
2.560000,0.17020760371180826,-0.05703811209713067,0.0,0.000000,3.141593,0.000000,0.05046472100589645,0.000500551584184594,0.0,-0.012943940593520734,0.07758463215903434,0.0
2.568000,0.1706108298441019,-0.05703145797312112,0.0,0.000000,3.141593,0.000000,0.050332133360699076,0.0011838548065755891,0.0,-0.02020297070582132,0.0932411734387144,0.0
2.576000,0.17101276298627038,-0.05701883641401149,0.0,0.000000,3.141593,0.000000,0.0501414734746033,0.001992410359204026,0.0,-0.027462000818121918,0.1088977147183945,0.0
2.584000,0.1714129385659538,-0.0569992454211857,0.0,0.000000,3.141593,0.000000,0.04989280575802279,0.0029259865548989903,0.0,-0.034224236648612134,0.12276726449883671,0.0
2.592000,0.17181107189476147,-0.05697233004680022,0.0,0.000000,3.141593,0.000000,0.04965128373342651,0.0037502232267655647,0.0,-0.026156269500457387,0.0832919034678066,0.0
2.600000,0.1722075312223211,-0.056940083990592784,0.0,0.000000,3.141593,0.000000,0.04947430544601547,0.004258657010383896,0.0,-0.01808830235230264,0.04381654243677649,0.0
2.608000,0.1726028328985302,-0.056905033675669396,0.0,0.000000,3.141593,0.000000,0.04936187089578967,0.004451287905753989,0.0,-0.010020335204147888,0.004341181405746408,0.0
2.616000,0.17299749327328623,-0.056869705525136045,0.0,0.000000,3.141593,0.000000,0.049313980082749106,0.0043281159128758405,0.0,-0.0019523680559931367,-0.03513417962528373,0.0
2.624000,0.17339202869648668,-0.056836625962098715,0.0,0.000000,3.141593,0.000000,0.049330633006893776,0.003889141031749449,0.0,0.006115599092161611,-0.07460954065631381,0.0
2.632000,0.17378695551802903,-0.05680832140966339,0.0,0.000000,3.141593,0.000000,0.04941182966822369,0.0031343632623748174,0.0,0.014183566240316366,-0.11408490168734389,0.0
2.640000,0.17418279008781076,-0.05678731829093604,0.0,0.000000,3.141593,0.000000,0.04955757006673884,0.002063782604751944,0.0,0.022251533388471106,-0.153560262718374,0.0
2.648000,0.17458004875572933,-0.05677614302902268,0.0,0.000000,3.141593,0.000000,0.049767854202439225,0.0006773990588808312,0.0,0.030319500536625854,-0.19303562374940417,0.0
2.656000,0.1749792478716823,-0.05677732204702928,0.0,0.000000,3.141593,0.000000,0.050042682075324856,-0.0010247873752385235,0.0,0.038387467684780616,-0.23251098478043422,0.0
2.664000,0.17538090378556703,-0.05679338176806183,0.0,0.000000,3.141593,0.000000,0.050382053685395715,-0.0030427766976061227,0.0,0.04645543483293536,-0.2719863458114643,0.0
2.672000,0.1757855328472811,-0.05682684861522631,0.0,0.000000,3.141593,0.000000,0.05078596903265182,-0.005376568908221958,0.0,0.05452340198109011,-0.3114617068424945,0.0
2.680000,0.17619365140672197,-0.056880249011628706,0.0,0.000000,3.141593,0.000000,0.05125442811709316,-0.008026164007086035,0.0,0.06259136912924486,-0.3509370678735245,0.0
2.688000,0.17660577581378709,-0.056956109380375014,0.0,0.000000,3.141593,0.000000,0.051787430938719736,-0.010991561994198356,0.0,0.0706593362773996,-0.39041242890455474,0.0
2.696000,0.1770223629239172,-0.057056739459059,0.0,0.000000,3.141593,0.000000,0.05234307314806925,-0.014120142509245898,0.0,0.059050685921345214,-0.35822333286210245,0.0
2.704000,0.1774426889767697,-0.057180149049622014,0.0,0.000000,3.141593,0.000000,0.05269992077986323,-0.01660541811118784,0.0,0.030161222027149645,-0.2630955676233826,0.0
2.712000,0.17786494534783195,-0.05732039675651291,0.0,0.000000,3.141593,0.000000,0.05282565270050364,-0.018329671591220023,0.0,0.0012717581329540761,-0.16796780238466277,0.0
2.720000,0.1782872831114147,-0.05747139440275644,0.0,0.000000,3.141593,0.000000,0.05272026890999049,-0.019292902949342446,0.0,-0.027617705761241493,-0.07284003714594289,0.0
2.728000,0.17870785334182873,-0.057627053811377296,0.0,0.000000,3.141593,0.000000,0.05238376940832378,-0.01949511218555511,0.0,-0.05650716965543706,0.022287728092776904,0.0
2.736000,0.17912480711338483,-0.05778128680540023,0.0,0.000000,3.141593,0.000000,0.0518161541955035,-0.018936299299858017,0.0,-0.08539663354963264,0.11741549333149681,0.0
2.744000,0.1795362955003937,-0.05792800520784994,0.0,0.000000,3.141593,0.000000,0.05101742327152965,-0.01761646429225116,0.0,-0.1142860974438282,0.2125432585702166,0.0
2.752000,0.1799404695771662,-0.058061120841751156,0.0,0.000000,3.141593,0.000000,0.04998757663640224,-0.015535607162734548,0.0,-0.14317556133802378,0.3076710238089365,0.0
2.760000,0.18033548041801303,-0.0581745455301286,0.0,0.000000,3.141593,0.000000,0.048726614290121276,-0.01269372791130817,0.0,-0.17206502523221934,0.4027987890476562,0.0
2.768000,0.18071947909724506,-0.05826219109600699,0.0,0.000000,3.141593,0.000000,0.04723453623268674,-0.009090826537972038,0.0,-0.2009544891264149,0.4979265542863761,0.0
2.776000,0.18109061668917295,-0.05831796936241106,0.0,0.000000,3.141593,0.000000,0.04551134246409863,-0.004726903042726147,0.0,-0.2298439530206105,0.593054319525096,0.0
2.784000,0.18144704426810757,-0.05833579215236552,0.0,0.000000,3.141593,0.000000,0.04355703298435696,0.0003980425744295052,0.0,-0.258733416914806,0.6881820847638159,0.0
2.792000,0.1817869129083596,-0.05830957128889509,0.0,0.000000,3.141593,0.000000,0.04137160779346173,0.00628401031349491,0.0,-0.2876228808090016,0.7833098500025356,0.0
