t,x,y,z,roll,pitch,yaw,vx,vy,vz,ax,ay,az
0.000000,0.5,-0.06,0.5846,0.000000,1.570796,0.000000,0.0,0.0,0.0,0.0,0.8481543741662954,-1.4003300596063628
0.008000,0.5,-0.059973888218261794,0.5845565418041971,0.000000,1.570796,0.000000,0.0,0.006399300655160475,-0.010695503187664369,0.0,0.7516707896238234,-1.2735457373097292
0.016000,0.5,-0.05989966950598767,0.5844315766812064,0.000000,1.570796,0.000000,0.0,0.012026732633981175,-0.02037673179695567,0.0,0.6551872050813514,-1.1467614150130958
0.024000,0.5,-0.05978351881258833,0.5842332188276548,0.000000,1.570796,0.000000,0.0,0.0168822959364621,-0.029043685827873904,0.0,0.5587036205388795,-1.0199770927164622
0.032000,0.5,-0.059631611087474515,0.5839695824401694,0.000000,1.570796,0.000000,0.0,0.020965990562603246,-0.036696365280419065,0.0,0.4622200359964075,-0.8931927704198287
0.040000,0.5,-0.059450121280056924,0.5836487817153772,0.000000,1.570796,0.000000,0.0,0.02427781651240462,-0.04333477015459117,0.0,0.3657364514539355,-0.7664084481231952
0.048000,0.5,-0.059245224339746286,0.5832789308499049,0.000000,1.570796,0.000000,0.0,0.026817773785866215,-0.0489589004503902,0.0,0.26925286691146355,-0.6396241258265616
0.056000,0.5,-0.0590230952159533,0.5828681440403798,0.000000,1.570796,0.000000,0.0,0.02858586238298803,-0.053568756167816145,0.0,0.17276928236899158,-0.5128398035299282
0.064000,0.5,-0.05878990885808871,0.5824245354834289,0.000000,1.570796,0.000000,0.0,0.02958208230377008,-0.05716433730686904,0.0,0.07628569782651962,-0.3860554812332946
0.072000,0.5,-0.05855184021556322,0.581956219375679,0.000000,1.570796,0.000000,0.0,0.02980643354821235,-0.05974564386754887,0.0,-0.020197886715952462,-0.259271158936661
0.080000,0.5,-0.05831506423778755,0.5814713099137571,0.000000,1.570796,0.000000,0.0,0.029258916116314843,-0.06131267584985563,0.0,-0.11668147125842432,-0.13248683664002758
0.088000,0.5,-0.058085755874172425,0.5809779212942903,0.000000,1.570796,0.000000,0.0,0.027939530008077557,-0.061865433253789306,0.0,-0.21316505580089617,-0.005702514343394194
0.096000,0.5,-0.05787009007412855,0.5804841677139054,0.000000,1.570796,0.000000,0.0,0.025848275223500507,-0.06140391607934993,0.0,-0.30964864034336825,0.12108180795323964
0.104000,0.5,-0.057674241787066656,0.5799981633692296,0.000000,1.570796,0.000000,0.0,0.022985151762583658,-0.05992812432653746,0.0,-0.40613222488584033,0.24786613024987303
0.112000,0.5,-0.05750411069177077,0.5795276932013425,0.000000,1.570796,0.000000,0.0,0.019527040838793044,-0.057649628410404344,0.0,-0.426843192365187,0.28401762768331273
0.120000,0.5,-0.057361197563468296,0.5790752805532549,0.000000,1.570796,0.000000,0.0,0.01624571420530197,-0.05549155672285296,0.0,-0.3934884660075827,0.2555002942045354
0.128000,0.5,-0.057243467696990305,0.5786392199239961,0.000000,1.570796,0.000000,0.0,0.013231225382671722,-0.05356162370313178,0.0,-0.3601337396499784,0.22698296072575808
0.136000,0.5,-0.057148786389849916,0.5782176862042238,0.000000,1.570796,0.000000,0.0,0.01048357437090231,-0.051859829351240824,0.0,-0.32677901329237413,0.1984656272469807
0.144000,0.5,-0.05707501893956024,0.5778088542845954,0.000000,1.570796,0.000000,0.0,0.008002761169993731,-0.05038617366718009,0.0,-0.29342428693476985,0.1699482937682033
0.152000,0.5,-0.05702003064363438,0.577410899055768,0.000000,1.570796,0.000000,0.0,0.0057887857799459935,-0.04914065665094958,0.0,-0.2600695605771657,0.14143096028942606
0.160000,0.5,-0.05698168679958548,0.5770219954083993,0.000000,1.570796,0.000000,0.0,0.003841648200759086,-0.04812327830254927,0.0,-0.22671483421956135,0.11291362681064865
0.168000,0.5,-0.05695785270492661,0.5766403182331462,0.000000,1.570796,0.000000,0.0,0.0021613484324330082,-0.0473340386219792,0.0,-0.19336010786195706,0.08439629333187129
0.176000,0.5,-0.05694639365717091,0.5762640424206668,0.000000,1.570796,0.000000,0.0,0.0007478864749677731,-0.04677293760923933,0.0,-0.16000538150435295,0.055878959853094046
0.184000,0.5,-0.0569451749538315,0.5758913428616177,0.000000,1.570796,0.000000,0.0,-0.00039873767163663837,-0.04643997526432969,0.0,-0.12665065514674861,0.02736162637431666
0.192000,0.5,-0.05695206189242147,0.5755203944466565,0.000000,1.570796,0.000000,0.0,-0.0012785240073802037,-0.04633515158725026,0.0,-0.09329592878914433,-0.0011557071044606682
0.200000,0.5,-0.05696491977045395,0.5751493720664408,0.000000,1.570796,0.000000,0.0,-0.0018914725322629472,-0.04645846657800106,0.0,-0.05994120243154,-0.029673040583238053
0.208000,0.5,-0.05698161388544205,0.5747764506116276,0.000000,1.570796,0.000000,0.0,-0.0022375832462848515,-0.04680992023658208,0.0,-0.026586476073935716,-0.05819037406201544
0.216000,0.5,-0.05700000953489892,0.5743998049728746,0.000000,1.570796,0.000000,0.0,-0.002316856176248742,-0.04738951252378671,0.0,0.006755224731642865,-0.0866886540417295
0.224000,0.5,-0.0570182425183513,0.5740180057254022,0.000000,1.570796,0.000000,0.0,-0.0022306773410731427,-0.04804893813841422,0.0,0.014789484062256832,-0.07816774961514845
0.232000,0.5,-0.0570355289748237,0.5736312037419544,0.000000,1.570796,0.000000,0.0,-0.0020802244312526324,-0.04864019651762908,0.0,0.0228237433928708,-0.0696468451885674
0.240000,0.5,-0.05705135471171896,0.5732399443604146,0.000000,1.570796,0.000000,0.0,-0.0018654974467872108,-0.0491632876614313,0.0,0.03085800272348474,-0.06112594076198639
0.248000,0.5,-0.057065205536439914,0.572844772918666,0.000000,1.570796,0.000000,0.0,-0.0015864963876768765,-0.049618211569820866,0.0,0.03889226205409871,-0.052605036335405336
0.256000,0.5,-0.057076567256389404,0.5724462347545919,0.000000,1.570796,0.000000,0.0,-0.001243221253921631,-0.050004968242797786,0.0,0.04692652138471267,-0.04408413190882429
0.264000,0.5,-0.057084925678970264,0.5720448752060756,0.000000,1.570796,0.000000,0.0,-0.0008356720455214733,-0.050323557680362056,0.0,0.05496078071532664,-0.035563227482243234
0.272000,0.5,-0.057089766611585366,0.5716412396110004,0.000000,1.570796,0.000000,0.0,-0.000363848762476404,-0.05057397988251368,0.0,0.06299504004594061,-0.02704232305566219
0.280000,0.5,-0.05709057586163751,0.5712358733072498,0.000000,1.570796,0.000000,0.0,0.0001722485952135777,-0.05075623484925265,0.0,0.07102929937655457,-0.018521418629081132
0.288000,0.5,-0.05708683923652955,0.5708293216327068,0.000000,1.570796,0.000000,0.0,0.0007726200275484704,-0.050870322580578976,0.0,0.07906355870716855,-0.010000514202500088
0.296000,0.5,-0.057078042543664345,0.570422129925255,0.000000,1.570796,0.000000,0.0,0.00143726553452827,-0.05091624307649265,0.0,0.08709781803778245,-0.0014796097759190996
0.304000,0.5,-0.05706367159044472,0.5700148435227774,0.000000,1.570796,0.000000,0.0,0.0021661851161529867,-0.05089399633699369,0.0,0.09513207736839643,0.007041294650661958
0.312000,0.5,-0.05704321218427351,0.5696080077631576,0.000000,1.570796,0.000000,0.0,0.002959378772422614,-0.05080358236208206,0.0,0.10316633669901039,0.015562199077242989
0.320000,0.5,-0.05701615013255357,0.5692021679842785,0.000000,1.570796,0.000000,0.0,0.003816846503337155,-0.05064500115175779,0.0,0.11120059602962434,0.024083103503824047
0.328000,0.5,-0.056982039728360676,0.5687978526785524,0.000000,1.570796,0.000000,0.0,0.0046872768462721875,-0.0504308738243129,0.0,0.09360549296080242,0.02629993476531519
0.336000,0.5,-0.05694200663682211,0.5683952038268487,0.000000,1.570796,0.000000,0.0,0.005263433662572404,-0.05023677147928767,0.0,0.050433711114251586,0.022225651490990234
0.344000,0.5,-0.056898745787772244,0.5679939774168405,0.000000,1.570796,0.000000,0.0,0.005494216224100214,-0.05007526340045705,0.0,0.007261929267700751,0.018151368216665277
0.352000,0.5,-0.056855020175249245,0.5675939126943983,0.000000,1.570796,0.000000,0.0,0.005379624530855618,-0.04994634958782103,0.0,-0.035909852578849794,0.014077084942340345
0.360000,0.5,-0.05681359279329128,0.5671947489053922,0.000000,1.570796,0.000000,0.0,0.004919658582838616,-0.049850030041379605,0.0,-0.07908163442540062,0.010002801668015388
0.368000,0.5,-0.056777226635936554,0.5667962252956931,0.000000,1.570796,0.000000,0.0,0.004114318380049209,-0.049786304761132785,0.0,-0.12225341627195146,0.005928518393690428
0.376000,0.5,-0.05674868469722322,0.5663980811111708,0.000000,1.570796,0.000000,0.0,0.0029636039224873907,-0.04975517374708056,0.0,-0.16542519811850231,0.0018542351193654716
0.384000,0.5,-0.05673072997118948,0.5660000555976965,0.000000,1.570796,0.000000,0.0,0.0014675152101531683,-0.04975663699922294,0.0,-0.2085969799650531,-0.002220048154959492
0.392000,0.5,-0.05672612545187349,0.5656018880011402,0.000000,1.570796,0.000000,0.0,-0.0003739477569534629,-0.04979069451755991,0.0,-0.25176876181160396,-0.0062943314292844485
0.400000,0.5,-0.05673763413331345,0.5652033175673724,0.000000,1.570796,0.000000,0.0,-0.0025607849788324977,-0.04985734630209149,0.0,-0.2949405436581548,-0.010368614703609405
0.408000,0.5,-0.05676801900954754,0.5648040835422636,0.000000,1.570796,0.000000,0.0,-0.005092996455483945,-0.04995659235281766,0.0,-0.33811232550470566,-0.014442897977934362
0.416000,0.5,-0.05682004307461393,0.5644039251716841,0.000000,1.570796,0.000000,0.0,-0.007970582186907795,-0.05008843266973844,0.0,-0.3812841073512564,-0.018517181252259318
0.424000,0.5,-0.05689646932255079,0.5640025817015045,0.000000,1.570796,0.000000,0.0,-0.011193542173104028,-0.050252867252853814,0.0,-0.4244558891978071,-0.022591464526584254
0.432000,0.5,-0.057000060747396115,0.5635997923775953,0.000000,1.570796,0.000000,0.0,-0.014761876268144528,-0.050449896080077855,0.0,-0.4675567533349803,-0.026655014551484127
0.440000,0.5,-0.05713210759307705,0.5631955193435265,0.000000,1.570796,0.000000,0.0,-0.018123587580719497,-0.050595975557450566,0.0,-0.3728710748087617,-0.009864854791692558
0.448000,0.5,-0.05728801818754574,0.562790614958751,0.000000,1.570796,0.000000,0.0,-0.02072781346508472,-0.05060773375674494,0.0,-0.27818539628254313,0.006925304968099004
0.456000,0.5,-0.05746173264737651,0.5623861537934934,0.000000,1.570796,0.000000,0.0,-0.022574553921240192,-0.050485170677960975,0.0,-0.18349971775632445,0.023715464727890573
0.464000,0.5,-0.057647191089143686,0.5619832104179785,0.000000,1.570796,0.000000,0.0,-0.023663808949185912,-0.050228286321098686,0.0,-0.08881403923010583,0.040505624487682135
0.472000,0.5,-0.0578383336294216,0.5615828594024308,0.000000,1.570796,0.000000,0.0,-0.023995578548921887,-0.04983708068615806,0.0,0.005871639296112785,0.05729578424747371
0.480000,0.5,-0.058029100384784545,0.5611861753170749,0.000000,1.570796,0.000000,0.0,-0.023569862720448122,-0.04931155377313911,0.0,0.10055731782233068,0.07408594400726515
0.488000,0.5,-0.05821343147180687,0.5607942327321354,0.000000,1.570796,0.000000,0.0,-0.022386661463764595,-0.04865170558204182,0.0,0.19524299634854936,0.09087610376705671
0.496000,0.5,-0.05838526700706289,0.560408106217837,0.000000,1.570796,0.000000,0.0,-0.02044597477887132,-0.04785753611286621,0.0,0.2899286748747679,0.10766626352684827
0.504000,0.5,-0.05853854710712692,0.5600288703444044,0.000000,1.570796,0.000000,0.0,-0.0177478026657683,-0.04692904536561225,0.0,0.3846143534009866,0.12445642328663983
0.512000,0.5,-0.05866721188857328,0.5596575996820621,0.000000,1.570796,0.000000,0.0,-0.014292145124455535,-0.04586623334027996,0.0,0.4793000319272053,0.14124658304643142
0.520000,0.5,-0.058765201467976313,0.5592953688010348,0.000000,1.570796,0.000000,0.0,-0.010079002154933007,-0.044669100036869344,0.0,0.5739857104534237,0.15803674280622299
0.528000,0.5,-0.05882645596191032,0.558943252271547,0.000000,1.570796,0.000000,0.0,-0.005108373757200746,-0.043337645455380394,0.0,0.6686713889796424,0.17482690256601455
0.536000,0.5,-0.05884491548694963,0.5586023246638235,0.000000,1.570796,0.000000,0.0,0.0006197400687412702,-0.041871869595813106,0.0,0.7633570675058611,0.1916170623258061
0.544000,0.5,-0.058814520159668565,0.558273660548089,0.000000,1.570796,0.000000,0.0,0.007105339322893034,-0.04027177245816749,0.0,0.8580427460320795,0.20840722208559767
0.552000,0.5,-0.05872996645839198,0.5579582497374537,0.000000,1.570796,0.000000,0.0,0.013980192718273388,-0.03857861765898634,0.0,0.8332139368431158,0.21180471216537042
0.560000,0.5,-0.05859210713254671,0.5576563921796659,0.000000,1.570796,0.000000,0.0,0.020404006008056357,-0.03688656770104987,0.0,0.7727393856026248,0.21120777731874554
0.568000,0.5,-0.05840479248602287,0.5573680519196267,0.000000,1.570796,0.000000,0.0,0.026344022887915396,-0.03519929322188641,0.0,0.7122648343621336,0.2106108424721207
0.576000,0.5,-0.05817189289009986,0.5570931907535056,0.000000,1.570796,0.000000,0.0,0.031800243357850505,-0.03351679422149594,0.0,0.6517902831216426,0.21001390762549582
0.584000,0.5,-0.057897278716057064,0.5568317704774727,0.000000,1.570796,0.000000,0.0,0.03677266741786162,-0.03183907069987849,0.0,0.5913157318811523,0.20941697277887097
0.592000,0.5,-0.05758482033517387,0.5565837528876976,0.000000,1.570796,0.000000,0.0,0.04126129506794888,-0.030166122657034024,0.0,0.5308411806406612,0.20882003793224613
0.600000,0.5,-0.05723838811872967,0.5563490997803502,0.000000,1.570796,0.000000,0.0,0.045266126308112206,-0.028497950092962552,0.0,0.47036662940017004,0.20822310308562125
0.608000,0.5,-0.056861852438003874,0.5561277729516001,0.000000,1.570796,0.000000,0.0,0.048787161138351604,-0.026834553007664082,0.0,0.409892078159679,0.2076261682389964
0.616000,0.5,-0.05645908366427585,0.5559197341976174,0.000000,1.570796,0.000000,0.0,0.05182439955866707,-0.025175931401138607,0.0,0.3494175269191878,0.20702923339237153
0.624000,0.5,-0.056033952168824994,0.5557249453145718,0.000000,1.570796,0.000000,0.0,0.05437784156905861,-0.023522085273386135,0.0,0.28894297567869676,0.20643229854574668
0.632000,0.5,-0.055590328322930704,0.5555433680986333,0.000000,1.570796,0.000000,0.0,0.056447487169526224,-0.021873014624406658,0.0,0.2284684244382057,0.2058353636991218
0.640000,0.5,-0.05513208249787237,0.5553749643459713,0.000000,1.570796,0.000000,0.0,0.058033336360069916,-0.020228719454200184,0.0,0.16799387319771464,0.20523842885249696
0.648000,0.5,-0.05466308506492938,0.5552196958527559,0.000000,1.570796,0.000000,0.0,0.059135389140689665,-0.018589199762766705,0.0,0.10751932195722347,0.2046414940058721
0.656000,0.5,-0.054187204147404,0.5550777379439301,0.000000,1.570796,0.000000,0.0,0.059754618069921564,-0.01686207505923785,0.0,0.04732528071893154,0.23068938385160245
0.664000,0.5,-0.05370829440375042,0.5549505449309735,0.000000,1.570796,0.000000,0.0,0.05989261660737592,-0.014895987275670543,0.0,-0.012825646355340586,0.26083256204022354
0.672000,0.5,-0.05323020550146357,0.5548400452019875,0.000000,1.570796,0.000000,0.0,0.059549407728236116,-0.012688754066594268,0.0,-0.0729765734296127,0.2909757402288447
0.680000,0.5,-0.052756787099876225,0.554748167920376,0.000000,1.570796,0.000000,0.0,0.05872499143250212,-0.010240375432009024,0.0,-0.1331275005038848,0.32111891841746576
0.688000,0.5,-0.052291888858321124,0.5546768422495434,0.000000,1.570796,0.000000,0.0,0.05741936772017396,-0.007550851371914812,0.0,-0.19327842757815697,0.35126209660608687
0.696000,0.5,-0.05183936043613102,0.5546279973528935,0.000000,1.570796,0.000000,0.0,0.05563253659125161,-0.0046201818863116275,0.0,-0.2534293546524291,0.38140527479470804
0.704000,0.5,-0.05140305149263868,0.5546035623938304,0.000000,1.570796,0.000000,0.0,0.05336449804573512,-0.001448366975199523,0.0,-0.3135802817267004,0.41154845298332876
0.712000,0.5,-0.05098681168717685,0.5546054665357582,0.000000,1.570796,0.000000,0.0,0.050615252083624426,0.0019645933614215964,0.0,-0.37373120880097255,0.44169163117194987
0.720000,0.5,-0.05059449067907828,0.554635638942081,0.000000,1.570796,0.000000,0.0,0.04738479870491956,0.005618699123551679,0.0,-0.4338821358752446,0.471834809360571
0.728000,0.5,-0.05022993812767572,0.5546960087762032,0.000000,1.570796,0.000000,0.0,0.043673137909620505,0.009513950311190737,0.0,-0.49403306294951677,0.5019779875491921
0.736000,0.5,-0.049897003692301926,0.5547885052015282,0.000000,1.570796,0.000000,0.0,0.039480269697727284,0.013650346924338762,0.0,-0.5541839900237889,0.5321211657378132
0.744000,0.5,-0.04959953703228967,0.5549150573814605,0.000000,1.570796,0.000000,0.0,0.034806194069239876,0.018027888962995755,0.0,-0.6143349170980611,0.5622643439264343
0.752000,0.5,-0.04934138780697168,0.5550775944794042,0.000000,1.570796,0.000000,0.0,0.029650911024158295,0.022646576427161714,0.0,-0.6744858441723333,0.5924075221150554
0.760000,0.5,-0.04912634728845378,0.555278010915352,0.000000,1.570796,0.000000,0.0,0.024074116799519076,0.027470886977062358,0.0,-0.6939470416254981,0.5983382126716621
0.768000,0.5,-0.048955418924314605,0.5555165422099253,0.000000,1.570796,0.000000,0.0,0.018725691119652995,0.03211410866021783,0.0,-0.6431593783410214,0.5624672081172024
0.776000,0.5,-0.04882565276038926,0.5557910714058182,0.000000,1.570796,0.000000,0.0,0.013783566746062724,0.036470362306937607,0.0,-0.5923717150565446,0.5265962035627427
0.784000,0.5,-0.04873379838622754,0.5560993027587392,0.000000,1.570796,0.000000,0.0,0.009247743678748269,0.040539647917221706,0.0,-0.5415840517720679,0.49072519900828293
0.792000,0.5,-0.04867660539137922,0.5564389405243966,0.000000,1.570796,0.000000,0.0,0.005118221917709631,0.04432196549107014,0.0,-0.49079638848759116,0.45485419445382325
0.800000,0.5,-0.04865082336539411,0.5568076889584991,0.000000,1.570796,0.000000,0.0,0.001395001462946804,0.04781731502848289,0.0,-0.44000872520311446,0.41898318989936356
0.808000,0.5,-0.048653201897822004,0.5572032523167552,0.000000,1.570796,0.000000,0.0,-0.0019219176855402066,0.05102569652945996,0.0,-0.3892210619186377,0.3831121853449038
0.816000,0.5,-0.048680490578212686,0.5576233348548734,0.000000,1.570796,0.000000,0.0,-0.0048325355277514075,0.053947109994001353,0.0,-0.338433398634161,0.3472411807904441
0.824000,0.5,-0.048729438996115954,0.558065640828562,0.000000,1.570796,0.000000,0.0,-0.007336852063686785,0.05658155542210708,0.0,-0.2876457353496842,0.3113701762359844
0.832000,0.5,-0.0487967967410816,0.5585278744935298,0.000000,1.570796,0.000000,0.0,-0.009434867293346354,0.05892903281377711,0.0,-0.23685807206520748,0.2754991716815247
0.840000,0.5,-0.04887931340265943,0.5590077401054853,0.000000,1.570796,0.000000,0.0,-0.011126581216730089,0.06098954216901145,0.0,-0.18607040878073144,0.23962816712706547
0.848000,0.5,-0.04897373857039922,0.5595029419201368,0.000000,1.570796,0.000000,0.0,-0.012411993833838036,0.06276308348781012,0.0,-0.13528274549625463,0.2037571625726058
0.856000,0.5,-0.049076821833850766,0.5600111841931932,0.000000,1.570796,0.000000,0.0,-0.013291105144670166,0.06424965677017314,0.0,-0.08449508221177804,0.16788615801814605
0.864000,0.5,-0.04918531278256388,0.5605301711803625,0.000000,1.570796,0.000000,0.0,-0.013763915149226487,0.06544926201610046,0.0,-0.033707418927301225,0.1320151534636863
0.872000,0.5,-0.0492958778320918,0.5610572143300978,0.000000,1.570796,0.000000,0.0,-0.013794439682417848,0.06619195619374985,0.0,0.027458970011133815,0.04712836377364185
0.880000,0.5,-0.049404685205542156,0.5615872722688688,0.000000,1.570796,0.000000,0.0,-0.013323721559093595,0.06619930119656613,0.0,0.09022056081992992,-0.04529211306957143
0.888000,0.5,-0.04950771846310005,0.5621144315124035,0.000000,1.570796,0.000000,0.0,-0.01235091070929897,0.0654672823846367,0.0,0.15298215162872603,-0.13771258991278468
0.896000,0.5,-0.049600960862953694,0.5626327771501837,0.000000,1.570796,0.000000,0.0,-0.010876007133033976,0.06399589975796158,0.0,0.21574374243752215,-0.23013306675599787
0.904000,0.5,-0.049680395663291334,0.5631363942716917,0.000000,1.570796,0.000000,0.0,-0.008899010830298613,0.061785153316540734,0.0,0.27850533324631827,-0.3225535435992111
0.912000,0.5,-0.04974200612230121,0.5636193679664091,0.000000,1.570796,0.000000,0.0,-0.00641992180109288,0.05883504306037418,0.0,0.34126692405511433,-0.4149740204424244
0.920000,0.5,-0.04978177549817156,0.5640757833238182,0.000000,1.570796,0.000000,0.0,-0.003438740045416779,0.05514556898946195,0.0,0.4040285148639104,-0.5073944972856377
0.928000,0.5,-0.04979568704909063,0.5644997254334012,0.000000,1.570796,0.000000,0.0,4.453443672969293e-05,0.05071673110380398,0.0,0.4667901056727065,-0.5998149741288509
0.936000,0.5,-0.04977972403324663,0.5648852793846397,0.000000,1.570796,0.000000,0.0,0.0040299016453465356,0.04554852940340031,0.0,0.5295516964815026,-0.6922354509720641
0.944000,0.5,-0.04972986970882783,0.5652265302670163,0.000000,1.570796,0.000000,0.0,0.008517361580433744,0.03964096388825094,0.0,0.5923132872902988,-0.7846559278152774
0.952000,0.5,-0.04964210733402244,0.5655175631700126,0.000000,1.570796,0.000000,0.0,0.013506914241991325,0.03299403455835587,0.0,0.6550748780990949,-0.8770764046584907
0.960000,0.5,-0.04951242016701871,0.5657524631831106,0.000000,1.570796,0.000000,0.0,0.018998559630019188,0.02560774141371519,0.0,0.71783646890789,-0.9694968815017027
0.968000,0.5,-0.04933679146600488,0.5659253153957926,0.000000,1.570796,0.000000,0.0,0.024992297744517507,0.017482084454328695,0.0,0.7805980597166862,-1.0619173583449157
0.976000,0.5,-0.049111290392275866,0.5660303344008589,0.000000,1.570796,0.000000,0.0,0.031400299577534846,0.008749470392904525,0.0,0.7834942592740961,-1.0640877020548178
0.984000,0.5,-0.04883608773688954,0.5660679182073441,0.000000,1.570796,0.000000,0.0,0.03726641957770819,0.0008513374544594863,0.0,0.6830357407692383,-0.9104455325564402
0.992000,0.5,-0.04851717079409397,0.5660472334997462,0.000000,1.570796,0.000000,0.0,0.042328871429842665,-0.00581765812799853,0.0,0.5825772222643806,-0.7568033630580625
1.000000,0.5,-0.048160968909073495,0.5659781133769122,0.000000,1.570796,0.000000,0.0,0.04658765513393828,-0.011257516354469522,0.0,0.48211870375952287,-0.6031611935596848
1.008000,0.5,-0.0477739114270124,0.5658703909376905,0.000000,1.570796,0.000000,0.0,0.05004277068999504,-0.015468237224953496,0.0,0.38166018525466516,-0.44951902406130695
1.016000,0.5,-0.04736242769309501,0.565733899280929,0.000000,1.570796,0.000000,0.0,0.05269421809801293,-0.01844982073945044,0.0,0.2812016667498074,-0.2958768545629292
1.024000,0.5,-0.046932947052505634,0.5655784715054752,0.000000,1.570796,0.000000,0.0,0.054541997357991964,-0.020202266897960362,0.0,0.18074314824494975,-0.1422346850645516
1.032000,0.5,-0.04649189885042857,0.5654139407101776,0.000000,1.570796,0.000000,0.0,0.05558610846993213,-0.02072557570048328,0.0,0.08028462974009198,0.01140748443382611
1.040000,0.5,-0.04604571243204816,0.5652501399938835,0.000000,1.570796,0.000000,0.0,0.05582655143383343,-0.02001974714701915,0.0,-0.02017388876476567,0.16504965393220394
1.048000,0.5,-0.045600817142548676,0.5650969024554412,0.000000,1.570796,0.000000,0.0,0.05526332624969588,-0.018084781237568015,0.0,-0.12063240726962354,0.31869182343058156
1.056000,0.5,-0.04516364232711445,0.5649640611936985,0.000000,1.570796,0.000000,0.0,0.05389643291751946,-0.014920677972129842,0.0,-0.2210909257744812,0.47233399292895917
1.064000,0.5,-0.044740617330929794,0.564861449307503,0.000000,1.570796,0.000000,0.0,0.05172587143730417,-0.01052743735070466,0.0,-0.32154944427933907,0.6259761624273372
1.072000,0.5,-0.04433817149917903,0.5647988998957032,0.000000,1.570796,0.000000,0.0,0.04875164180905002,-0.004905059373292442,0.0,-0.4220079627841965,0.7796183319257148
1.080000,0.5,-0.043962734177046436,0.5647862460571463,0.000000,1.570796,0.000000,0.0,0.044973744032757015,0.0019464559601067993,0.0,-0.5224664812890544,0.9332605014240929
1.088000,0.5,-0.043620499771816895,0.5648329649695548,0.000000,1.570796,0.000000,0.0,0.04055610035669679,0.009778773275295395,0.0,-0.5466764718751765,0.9713893290035379
1.096000,0.5,-0.04331310291294131,0.5649416259372739,0.000000,1.570796,0.000000,0.0,0.036348327252450914,0.017304759028051203,0.0,-0.5052668041862927,0.910107109185413
1.104000,0.5,-0.04303804312953365,0.5651085337599808,0.000000,1.570796,0.000000,0.0,0.0324718314897161,0.024340487022262016,0.0,-0.4638571364974087,0.8488248893672883
1.112000,0.5,-0.042792670202861816,0.5653297663756074,0.000000,1.570796,0.000000,0.0,0.02892661306849237,0.030885957257927824,0.0,-0.4224474688085247,0.7875426695491634
1.120000,0.5,-0.04257433391419375,0.565601401722085,0.000000,1.570796,0.000000,0.0,0.025712671988779703,0.03694116973504864,0.0,-0.38103780111964075,0.7262604497310386
1.128000,0.5,-0.04238038404479731,0.5659195177373453,0.000000,1.570796,0.000000,0.0,0.022830008250578113,0.04250612445362446,0.0,-0.3396281334307568,0.6649782299129139
1.136000,0.5,-0.04220817037594046,0.56628019235932,0.000000,1.570796,0.000000,0.0,0.02027862185388759,0.04758082141365527,0.0,-0.29821846574187283,0.603696010094789
1.144000,0.5,-0.042055042688891084,0.566679503525941,0.000000,1.570796,0.000000,0.0,0.01805851279870814,0.052165260615141096,0.0,-0.25680879805298884,0.5424137902766644
1.152000,0.5,-0.0419183507649171,0.5671135291751397,0.000000,1.570796,0.000000,0.0,0.01616968108503976,0.05625944205808191,0.0,-0.2153991303641049,0.4811315704585395
1.160000,0.5,-0.04179544438528643,0.5675783472448475,0.000000,1.570796,0.000000,0.0,0.014612126712882497,0.05986336574247764,0.0,-0.17398946267522208,0.4198493506404164
1.168000,0.5,-0.04168367333126696,0.5680700356729965,0.000000,1.570796,0.000000,0.0,0.013385849682236259,0.06297703166832848,0.0,-0.13257979498633815,0.3585671308222915
1.176000,0.5,-0.041580387384126616,0.568584672397518,0.000000,1.570796,0.000000,0.0,0.012490849993101086,0.06560043983563432,0.0,-0.09117012729745422,0.29728491100416676
1.184000,0.5,-0.0414829363251333,0.5691183353563438,0.000000,1.570796,0.000000,0.0,0.011927127645476987,0.06773359024439514,0.0,-0.04976045960857023,0.236002691186042
1.192000,0.5,-0.041388671988240984,0.569667101385196,0.000000,1.570796,0.000000,0.0,0.011688323768403714,0.0693730684376259,0.0,-0.0214832564897168,0.1676688680781797
1.200000,0.5,-0.04129656833987105,0.5702261763001505,0.000000,1.570796,0.000000,0.0,0.011248153627877063,0.07023628076035404,0.0,-0.08855927864194647,0.048134212603849924
1.208000,0.5,-0.0412101324853342,0.5707883318047116,0.000000,1.570796,0.000000,0.0,0.01027137531013257,0.07014321583928752,0.0,-0.15563530079417615,-0.07140044287047992
1.216000,0.5,-0.04113365729004817,0.5713459176809289,0.000000,1.570796,0.000000,0.0,0.00875798881517024,0.06909387367442635,0.0,-0.2227113229464058,-0.19093509834480965
1.224000,0.5,-0.041071435619430725,0.5718912837108524,0.000000,1.570796,0.000000,0.0,0.006707994142990075,0.06708825426577056,0.0,-0.28978734509863546,-0.31046975381913944
1.232000,0.5,-0.04102776033889958,0.5724167796765312,0.000000,1.570796,0.000000,0.0,0.004121391293592069,0.06412635761332011,0.0,-0.35686336725086515,-0.4300044092934692
1.240000,0.5,-0.041006924313872505,0.5729147553600152,0.000000,1.570796,0.000000,0.0,0.0009981802669762271,0.060208183717075044,0.0,-0.4239393894030949,-0.5495390647677991
1.248000,0.5,-0.04101322040976721,0.5733775605433542,0.000000,1.570796,0.000000,0.0,-0.0026616389368574536,0.05533373257703532,0.0,-0.4910154115553245,-0.6690737202421289
1.256000,0.5,-0.04105094149200146,0.5737975450085977,0.000000,1.570796,0.000000,0.0,-0.006858066317908973,0.04950300419320097,0.0,-0.5580914337075542,-0.7886083757164588
1.264000,0.5,-0.041124380425993,0.5741670585377954,0.000000,1.570796,0.000000,0.0,-0.011591101876178327,0.04271599856557199,0.0,-0.6251674558597837,-0.9081430311907885
1.272000,0.5,-0.04123783007715957,0.5744784509129968,0.000000,1.570796,0.000000,0.0,-0.016860745611665527,0.034972715694148344,0.0,-0.6922434780120135,-1.0276776866651183
1.280000,0.5,-0.041395583310918894,0.5747240719162515,0.000000,1.570796,0.000000,0.0,-0.022666997524370555,0.026273155578930084,0.0,-0.7593195001642432,-1.147212342139448
1.288000,0.5,-0.04160193299268874,0.5748962713296095,0.000000,1.570796,0.000000,0.0,-0.029009857614293425,0.01661731821991716,0.0,-0.826395522316473,-1.2667469976137777
1.296000,0.5,-0.04186117198788684,0.5749873989351201,0.000000,1.570796,0.000000,0.0,-0.035889325881434134,0.006005203617109614,0.0,-0.8934715444687025,-1.3862816530881075
1.304000,0.5,-0.04217717631910903,0.5749903782345005,0.000000,1.570796,0.000000,0.0,-0.043014838420750795,-0.005163271958467448,0.0,-0.8255208395585859,-1.319972904620994
1.312000,0.5,-0.04254574993566988,0.5749092426897553,0.000000,1.570796,0.000000,0.0,-0.04888334601058783,-0.014819393744032003,0.0,-0.6416060579006695,-1.0940575417701428
1.320000,0.5,-0.042955386339936404,0.5747580874623368,0.000000,1.570796,0.000000,0.0,-0.05328053534716152,-0.02266819262678975,0.0,-0.45769127624275285,-0.8681421789192915
1.328000,0.5,-0.04339431498588244,0.5745513711354675,0.000000,1.570796,0.000000,0.0,-0.05620640643047188,-0.028709668606740676,0.0,-0.2737764945848363,-0.6422268160684403
1.336000,0.5,-0.04385076532748191,0.5743035522923697,0.000000,1.570796,0.000000,0.0,-0.05766095926051891,-0.0329438216838848,0.0,-0.08986171292692002,-0.4163114532175891
1.344000,0.5,-0.0443129668187087,0.5740290895162662,0.000000,1.570796,0.000000,0.0,-0.0576441938373026,-0.03537065185822211,0.0,0.09405306873099673,-0.19039609036673788
1.352000,0.5,-0.04476914891353672,0.573742441390379,0.000000,1.570796,0.000000,0.0,-0.05615611016082296,-0.03599015912975261,0.0,0.27796785038891325,0.03551927248411357
1.360000,0.5,-0.04520754106593984,0.573458066497931,0.000000,1.570796,0.000000,0.0,-0.053196708231079984,-0.03480234349847631,0.0,0.46188263204682956,0.2614346353349646
1.368000,0.5,-0.045616372729891955,0.5731904234221442,0.000000,1.570796,0.000000,0.0,-0.04876598804807368,-0.03180720496439318,0.0,0.6457974137047461,0.4873499981858158
1.376000,0.5,-0.045983873359366975,0.5729539707462415,0.000000,1.570796,0.000000,0.0,-0.04286394961180405,-0.027004743527503247,0.0,0.8297121953626626,0.713265361036667
1.384000,0.5,-0.046298272408338795,0.572763167053445,0.000000,1.570796,0.000000,0.0,-0.03549059292227108,-0.020394959187806483,0.0,1.013626977020579,0.9391807238875183
1.392000,0.5,-0.04654779933078129,0.5726324709269773,0.000000,1.570796,0.000000,0.0,-0.026645917979474742,-0.01197785194530293,0.0,1.1975417586784958,1.1650960867383695
1.400000,0.5,-0.04672068358066835,0.572576340950061,0.000000,1.570796,0.000000,0.0,-0.016329924783415106,-0.0017534217999925217,0.0,1.381456540336412,1.3910114495892207
1.408000,0.5,-0.04680516143219235,0.5726092265603282,0.000000,1.570796,0.000000,0.0,-0.0045636518011625635,0.0102501196596141,0.0,1.522106129532796,1.558910237255548
1.416000,0.5,-0.046794797717413544,0.5727384318515313,0.000000,1.570796,0.000000,0.0,0.006925272126246625,0.02171610393294213,0.0,1.3501248523194986,1.307585831076458
1.424000,0.5,-0.046698026012086294,0.5729513226359234,0.000000,1.570796,0.000000,0.0,0.017038345835949435,0.031171492956837448,0.0,1.1781435751062015,1.0562614248973685
1.432000,0.5,-0.04652585311795223,0.5732318141515089,0.000000,1.570796,0.000000,0.0,0.025775569327945863,0.03861628673130004,0.0,1.0061622978929043,0.8049370187182787
1.440000,0.5,-0.04628928583675304,0.5735638216362924,0.000000,1.570796,0.000000,0.0,0.033136942602235916,0.044050485256329916,0.0,0.834181020679607,0.5536126125391889
1.448000,0.5,-0.045999330970230345,0.5739312603282785,0.000000,1.570796,0.000000,0.0,0.03912246565881959,0.04747408853192708,0.0,0.6621997434663097,0.3022882063600991
1.456000,0.5,-0.0456669953201258,0.5743180454654715,0.000000,1.570796,0.000000,0.0,0.04373213849769689,0.04888709655809151,0.0,0.49021846625301246,0.05096380018100932
1.464000,0.5,-0.04530328568818108,0.5747080922858759,0.000000,1.570796,0.000000,0.0,0.046965961118867805,0.04828950933482322,0.0,0.3182371890397151,-0.20036060599808025
1.472000,0.5,-0.04491920887613781,0.5750853160274967,0.000000,1.570796,0.000000,0.0,0.04882393352233234,0.045681326862122215,0.0,0.14625591182641795,-0.4516850121771703
1.480000,0.5,-0.04452577168573764,0.5754336319283381,0.000000,1.570796,0.000000,0.0,0.0493060557080905,0.04106254913998851,0.0,-0.025725365386879417,-0.7030094183562601
1.488000,0.5,-0.04413398091872224,0.5757369552264048,0.000000,1.570796,0.000000,0.0,0.04841232767614227,0.034433176168422064,0.0,-0.19770664260017634,-0.9543338245353494
1.496000,0.5,-0.04375484337683326,0.575979201159701,0.000000,1.570796,0.000000,0.0,0.04614274942648769,0.025793207947422903,0.0,-0.3696879198134737,-1.2056582307144392
1.504000,0.5,-0.043399365861812325,0.5761442849662316,0.000000,1.570796,0.000000,0.0,0.042497320959126686,0.015142644476990985,0.0,-0.5416691970267706,-1.456982636893529
1.512000,0.5,-0.043078410437802306,0.5762163685374443,0.000000,1.570796,0.000000,0.0,0.03761392441965813,0.002716456533567255,0.0,-0.6260828749800176,-1.5590794059493533
1.520000,0.5,-0.04279699532624303,0.5761895725034716,0.000000,1.570796,0.000000,0.0,0.032807149495332304,-0.009245108183098164,0.0,-0.575610856101439,-1.4313117732169984
1.528000,0.5,-0.042552419309474246,0.576071172516013,0.000000,1.570796,0.000000,0.0,0.0284041507220351,-0.02018453183790474,0.0,-0.5251388372228604,-1.3035441404846435
1.536000,0.5,-0.04234145217828772,0.5758693457035634,0.000000,1.570796,0.000000,0.0,0.024404928099766528,-0.030101814430852473,0.0,-0.4746668183442817,-1.1757765077522884
1.544000,0.5,-0.04216086372347524,0.5755922691946177,0.000000,1.570796,0.000000,0.0,0.020809481628526586,-0.038996955961941374,0.0,-0.42419479946570304,-1.0480088750199335
1.552000,0.5,-0.042007423735828546,0.5752481201176707,0.000000,1.570796,0.000000,0.0,0.017617811308315273,-0.04686995643117142,0.0,-0.3737227805871244,-0.9202412422875784
1.560000,0.5,-0.04187790200613945,0.5748450756012173,0.000000,1.570796,0.000000,0.0,0.014829917139132589,-0.05372081583854264,0.0,-0.3232507617085458,-0.7924736095552234
1.568000,0.5,-0.04176906832519969,0.5743913127737522,0.000000,1.570796,0.000000,0.0,0.012445799120978533,-0.059549534184055015,0.0,-0.27277874282996717,-0.6647059768228685
1.576000,0.5,-0.04167769248380105,0.5738950087637706,0.000000,1.570796,0.000000,0.0,0.01046545725385311,-0.06435611146770855,0.0,-0.2223067239513885,-0.5369383440905136
1.584000,0.5,-0.041600544272735296,0.5733643406997673,0.000000,1.570796,0.000000,0.0,0.008888891537756315,-0.06814054768950324,0.0,-0.17183470507280985,-0.4091707113581584
1.592000,0.5,-0.0415343934827942,0.5728074857102369,0.000000,1.570796,0.000000,0.0,0.007716101972688155,-0.0709028428494391,0.0,-0.12136268619423118,-0.28140307862580327
1.600000,0.5,-0.041476009904769545,0.5722326209236744,0.000000,1.570796,0.000000,0.0,0.0069470885586486175,-0.07264299694751611,0.0,-0.07089066731565252,-0.15363544589344835
1.608000,0.5,-0.04142216332945308,0.571647923468575,0.000000,1.570796,0.000000,0.0,0.0065818512956377015,-0.07336100998373427,0.0,-0.02041864843707386,-0.025867813161093434
1.616000,0.5,-0.04136982859623924,0.5710614927984897,0.000000,1.570796,0.000000,0.0,0.0064872738390523415,-0.07310730807359492,0.0,-0.027558860584209463,0.08007559487027643
1.624000,0.5,-0.0413193377863477,0.5704801566023006,0.000000,1.570796,0.000000,0.0,0.006069741473559321,-0.07210675980320541,0.0,-0.07682423078904546,0.17006147272709846
1.632000,0.5,-0.04127376372722666,0.569909704340366,0.000000,1.570796,0.000000,0.0,0.005258086146427613,-0.07038632450996134,0.0,-0.12608960099388145,0.2600473505839205
1.640000,0.5,-0.04123625940256923,0.5693558951088689,0.000000,1.570796,0.000000,0.0,0.004052307857657216,-0.06794600219386268,0.0,-0.17535497119871746,0.35003322844074247
1.648000,0.5,-0.04120997779606852,0.5688244880039919,0.000000,1.570796,0.000000,0.0,0.00245240660724813,-0.06478579285490946,0.0,-0.22462034140355341,0.4400191062975645
1.656000,0.5,-0.04119807189141763,0.5683212421219179,0.000000,1.570796,0.000000,0.0,0.0004583823952003579,-0.060905696493101645,0.0,-0.2738857116083894,0.5300049841543866
1.664000,0.5,-0.041203694672309686,0.5678519165588297,0.000000,1.570796,0.000000,0.0,-0.0019297647784861025,-0.05630571310843927,0.0,-0.32315108181322544,0.6199908620112085
1.672000,0.5,-0.04122999912243778,0.5674222704109105,0.000000,1.570796,0.000000,0.0,-0.004712034913811172,-0.05098584270092246,0.0,-0.37241645201806006,0.7099767398680281
1.680000,0.5,-0.041280138225495026,0.5670380627743427,0.000000,1.570796,0.000000,0.0,-0.007888428010774998,-0.044946085270550946,0.0,-0.421681822222896,0.7999626177248502
1.688000,0.5,-0.04135726496517455,0.5667050527453092,0.000000,1.570796,0.000000,0.0,-0.011458944069377513,-0.038186440817324856,0.0,-0.47094719242773203,0.8899484955816721
1.696000,0.5,-0.04146453232516943,0.5664289994199931,0.000000,1.570796,0.000000,0.0,-0.015423583089618718,-0.030706909341244176,0.0,-0.520212562632568,0.979934373438494
1.704000,0.5,-0.041605093289172806,0.5662156618945771,0.000000,1.570796,0.000000,0.0,-0.019782345071498612,-0.022507490842308936,0.0,-0.569477932837404,1.069920251295316
1.712000,0.5,-0.041782100840877794,0.5660707992652437,0.000000,1.570796,0.000000,0.0,-0.024535230015017194,-0.0135881853205191,0.0,-0.61874330304224,1.1599061291521382
1.720000,0.5,-0.041998707963977464,0.5660001706281764,0.000000,1.570796,0.000000,0.0,-0.029682237920174458,-0.00394899277587471,0.0,-0.668008673247076,1.2498920070089603
1.728000,0.5,-0.042256728751750294,0.5660065472498083,0.000000,1.570796,0.000000,0.0,-0.03471853939042308,0.00528352387598187,0.0,-0.5903765683342213,1.0566970904548878
1.736000,0.5,-0.0425525336396776,0.5660805524847409,0.000000,1.570796,0.000000,0.0,-0.03912824791855732,0.012958126985909878,0.0,-0.5120505636993372,0.8619536870271127
1.744000,0.5,-0.04288110976368166,0.566209722755643,0.000000,1.570796,0.000000,0.0,-0.042911348409612485,0.01907478286841569,0.0,-0.4337245590644532,0.6672102835993379
1.752000,0.5,-0.04323744425946585,0.5663815944846956,0.000000,1.570796,0.000000,0.0,-0.046067840863588574,0.0236334915234993,0.0,-0.3553985544295691,0.472466880171563
1.760000,0.5,-0.04361652426273354,0.5665837040940792,0.000000,1.570796,0.000000,0.0,-0.048597725280485594,0.026634252951160703,0.0,-0.277072549794685,0.27772347674378806
1.768000,0.5,-0.044013336909188086,0.5668035880059745,0.000000,1.570796,0.000000,0.0,-0.05050100166030354,0.028077067151399907,0.0,-0.198746545159801,0.08298007331601309
1.776000,0.5,-0.04442286933453285,0.567028782642562,0.000000,1.570796,0.000000,0.0,-0.05177767000304241,0.027961934124216922,0.0,-0.12042054052491691,-0.11176333011176176
1.784000,0.5,-0.04484010867447122,0.5672468244260221,0.000000,1.570796,0.000000,0.0,-0.05242773030870221,0.02628885386961173,0.0,-0.04209453589003287,-0.3065067335395364
1.792000,0.5,-0.045260042064706546,0.5674452497785359,0.000000,1.570796,0.000000,0.0,-0.05245118257728293,0.02305782638758433,0.0,0.03623146874485117,-0.5012501369673115
1.800000,0.5,-0.04567765664094219,0.5676115951222837,0.000000,1.570796,0.000000,0.0,-0.0518480268087846,0.01826885167813473,0.0,0.11455747337973521,-0.6959935403950863
1.808000,0.5,-0.04608793953888155,0.5677333968794462,0.000000,1.570796,0.000000,0.0,-0.05061826300320718,0.011921929741262924,0.0,0.19288347801461936,-0.8907369438228616
1.816000,0.5,-0.04648587789422798,0.5677981914722041,0.000000,1.570796,0.000000,0.0,-0.04876189116055067,0.00401706057696892,0.0,0.2712094826495034,-1.0854803472506362
1.824000,0.5,-0.046866461979573205,0.5677935336652739,0.000000,1.570796,0.000000,0.0,-0.04628549931824455,-0.005407233145482225,0.0,0.3403114342478976,-1.226287332099475
1.832000,0.5,-0.04722557156210393,0.5677121794242551,0.000000,1.570796,0.000000,0.0,-0.04345634054952611,-0.014788224762701732,0.0,0.36697825793171307,-1.1189605722054001
1.840000,0.5,-0.04756119453612703,0.5675592117066149,0.000000,1.570796,0.000000,0.0,-0.04041384719133714,-0.023310602300768646,0.0,0.39364508161552847,-1.0116338123113253
1.848000,0.5,-0.04787162422492674,0.5673414994249871,0.000000,1.570796,0.000000,0.0,-0.03715801924367765,-0.03097436575968295,0.0,0.4203119052993439,-0.9043070524172506
1.856000,0.5,-0.04815515395178729,0.5670659114920046,0.000000,1.570796,0.000000,0.0,-0.03368885670654763,-0.037779515139444664,0.0,0.4469787289831593,-0.7969802925231759
1.864000,0.5,-0.04841007703999291,0.5667393168203004,0.000000,1.570796,0.000000,0.0,-0.030006359579947087,-0.043726050440053774,0.0,0.4736455526669747,-0.6896535326291011
1.872000,0.5,-0.04863468681282785,0.566368584322508,0.000000,1.570796,0.000000,0.0,-0.026110527863876028,-0.048813971661510296,0.0,0.5003123763507902,-0.5823267727350264
1.880000,0.5,-0.048827276593576344,0.5659605829112607,0.000000,1.570796,0.000000,0.0,-0.02200136155833444,-0.05304327880381421,0.0,0.5269792000346056,-0.4750000128409517
1.888000,0.5,-0.04898613970552261,0.5655221814991915,0.000000,1.570796,0.000000,0.0,-0.017678860663322332,-0.05641397186696554,0.0,0.5536460237184211,-0.3676732529468769
1.896000,0.5,-0.049109569471950915,0.5650602489989336,0.000000,1.570796,0.000000,0.0,-0.013143025178839697,-0.05892605085096426,0.0,0.5803128474022364,-0.2603464930528022
1.904000,0.5,-0.04919585921614546,0.5645816543231204,0.000000,1.570796,0.000000,0.0,-0.008393855104886537,-0.06057951575581037,0.0,0.6069796710860519,-0.15301973315872752
1.912000,0.5,-0.04924330226139051,0.5640932663843851,0.000000,1.570796,0.000000,0.0,-0.003431350441462859,-0.061374366581503886,0.0,0.6336464947698672,-0.045692973264652714
1.920000,0.5,-0.04925019193097028,0.5636019540953607,0.000000,1.570796,0.000000,0.0,0.0017444888114311954,-0.06131060332804482,0.0,0.660313318453682,0.061633786629418985
1.928000,0.5,-0.04921482154816902,0.5631145863686808,0.000000,1.570796,0.000000,0.0,0.007133662653795926,-0.060388225995433156,0.0,0.6869801421374975,0.1689605465234938
1.936000,0.5,-0.04913617178564156,0.5626375521914149,0.000000,1.570796,0.000000,0.0,0.01239797431493444,-0.05884337254003901,0.0,0.6027115758513599,0.19882927444803075
1.944000,0.5,-0.049018969374237636,0.5621732285003807,0.000000,1.570796,0.000000,0.0,0.016744109343194796,-0.05722995615561046,0.0,0.48382218121372733,0.20452482165910732
1.952000,0.5,-0.04887080234323604,0.5617219943979324,0.000000,1.570796,0.000000,0.0,0.02013912921435409,-0.05557097539349329,0.0,0.3649327865760947,0.2102203688701839
1.960000,0.5,-0.04869927961389358,0.5612842143990918,0.000000,1.570796,0.000000,0.0,0.022583033928412315,-0.05386643025368751,0.0,0.24604339193846203,0.21591591608126048
1.968000,0.5,-0.04851201010746704,0.5608602530188805,0.000000,1.570796,0.000000,0.0,0.024075823485369477,-0.05211632073619312,0.0,0.12715399730082932,0.22161146329233705
1.976000,0.5,-0.048316602745213266,0.5604504747723199,0.000000,1.570796,0.000000,0.0,0.024617497885225582,-0.05032064684101011,0.0,0.00826460266319673,0.22730701050341362
1.984000,0.5,-0.04812066644838904,0.5600552441744315,0.000000,1.570796,0.000000,0.0,0.024208057127980624,-0.0484794085681385,0.0,-0.11062479197443587,0.2330025577144902
1.992000,0.5,-0.04793181013825118,0.5596749257402368,0.000000,1.570796,0.000000,0.0,0.022847501213634606,-0.04659260591757827,0.0,-0.22951418661206846,0.23869810492556678
2.000000,0.5,-0.047757642736056496,0.5593098839847574,0.000000,1.570796,0.000000,0.0,0.020535830142187524,-0.04466023888932943,0.0,-0.3484035812497013,0.24439365213664335
2.008000,0.5,-0.047605773163061776,0.5589604834230149,0.000000,1.570796,0.000000,0.0,0.017273043913639388,-0.04268230748339197,0.0,-0.4672929758873339,0.25008919934771995
2.016000,0.5,-0.04748381034052387,0.5586270885700303,0.000000,1.570796,0.000000,0.0,0.013059142527990189,-0.0406588116997659,0.0,-0.5861823705249665,0.2557847465587965
2.024000,0.5,-0.04739936318969954,0.5583100639408257,0.000000,1.570796,0.000000,0.0,0.00789412598523992,-0.03858975153845123,0.0,-0.7050717651625993,0.2614802937698731
2.032000,0.5,-0.04736004063184563,0.5580097740504222,0.000000,1.570796,0.000000,0.0,0.0017779942853885927,-0.03647512699944793,0.0,-0.8239611598002317,0.26717584098094965
2.040000,0.5,-0.04737345158821893,0.5577265834138416,0.000000,1.570796,0.000000,0.0,-0.0052892525715638045,-0.03431493808275603,0.0,-0.9428505544378645,0.2728713881920262
2.048000,0.5,-0.04744689517546133,0.5574608215912533,0.000000,1.570796,0.000000,0.0,-0.013089195638637531,-0.032133828714312196,0.0,-0.9590798979724445,0.2669839352512161
2.056000,0.5,-0.047581508711533396,0.557212122915089,0.000000,1.570796,0.000000,0.0,-0.02046536515785785,-0.03006228187399368,0.0,-0.8849624818326332,0.2509027748284123
2.064000,0.5,-0.04777275984644274,0.5569794820165137,0.000000,1.570796,0.000000,0.0,-0.02724859534795968,-0.028119384317057596,0.0,-0.8108450656928218,0.23482161440560853
2.072000,0.5,-0.048015905065556426,0.5567618697012604,0.000000,1.570796,0.000000,0.0,-0.03343888620894302,-0.026305136043503943,0.0,-0.7367276495530104,0.21874045398280473
2.080000,0.5,-0.04830620085424152,0.5565582567750619,0.000000,1.570796,0.000000,0.0,-0.03903623774080785,-0.024619537053332717,0.0,-0.6626102334131991,0.20265929356000095
2.088000,0.5,-0.04863890369786504,0.5563676140436514,0.000000,1.570796,0.000000,0.0,-0.04404064994355421,-0.02306258734654392,0.0,-0.5884928172733876,0.18657813313719718
2.096000,0.5,-0.04900927008179406,0.5561889123127616,0.000000,1.570796,0.000000,0.0,-0.048452122817182065,-0.02163428692313756,0.0,-0.5143754011335764,0.1704969727143934
2.104000,0.5,-0.049412556491395636,0.5560211223881255,0.000000,1.570796,0.000000,0.0,-0.05227065636169144,-0.020334635783113626,0.0,-0.440257984993765,0.15441581229158963
2.112000,0.5,-0.04984401941203681,0.5558632150754761,0.000000,1.570796,0.000000,0.0,-0.05549625057708231,-0.019163633926472124,0.0,-0.36614056885395363,0.13833465186878585
2.120000,0.5,-0.05029891532908464,0.5557141611805463,0.000000,1.570796,0.000000,0.0,-0.058128905463354696,-0.01812128135321305,0.0,-0.29202315271414225,0.12225349144598208
2.128000,0.5,-0.05077250072790617,0.555572931509069,0.000000,1.570796,0.000000,0.0,-0.06016862102050859,-0.017207578063336407,0.0,-0.21790573657433077,0.1061723310231783
2.136000,0.5,-0.051260032093868466,0.5554384968667772,0.000000,1.570796,0.000000,0.0,-0.06161539724854399,-0.0164225240568422,0.0,-0.1437883204345195,0.0900911706003745
2.144000,0.5,-0.05175676591233856,0.5553098280594038,0.000000,1.570796,0.000000,0.0,-0.0624692341474609,-0.015766119333730417,0.0,-0.06967090429470824,0.07401001017757072
2.152000,0.5,-0.052257959010704985,0.5551858969726814,0.000000,1.570796,0.000000,0.0,-0.06273124226570219,-0.015234857120300455,0.0,0.002042534353749525,0.06551987840172536
2.160000,0.5,-0.05275917503213423,0.5550666443231108,0.000000,1.570796,0.000000,0.0,-0.06250169364197901,-0.014512108861965911,0.0,0.055344621577046574,0.11516718618191063
2.168000,0.5,-0.053256848997782553,0.5549547623734559,0.000000,1.570796,0.000000,0.0,-0.06184572832046943,-0.013392182141389883,0.0,0.1086467088003436,0.1648144939620959
2.176000,0.5,-0.05374756957406765,0.5548534285514145,0.000000,1.570796,0.000000,0.0,-0.0607633463011735,-0.011875076958572373,0.0,0.16194879602364065,0.21446180174228116
2.184000,0.5,-0.05422792542740723,0.5547658202846847,0.000000,1.570796,0.000000,0.0,-0.05925454758409118,-0.009960793313513381,0.0,0.2152508832469377,0.26410910952246647
2.192000,0.5,-0.05469450522421901,0.5546951150009644,0.000000,1.570796,0.000000,0.0,-0.0573193321692225,-0.007649331206212907,0.0,0.26855297047023474,0.3137564173026517
2.200000,0.5,-0.055143897630920695,0.5546444901279514,0.000000,1.570796,0.000000,0.0,-0.054957700056567416,-0.00494069063667095,0.0,0.3218550576935318,0.3634037250828369
2.208000,0.5,-0.055572691313929994,0.5546171230933435,0.000000,1.570796,0.000000,0.0,-0.05216965124612598,-0.0018348716048875117,0.0,0.37515714491682883,0.41305103286302225
2.216000,0.5,-0.055977474939664616,0.5546161913248391,0.000000,1.570796,0.000000,0.0,-0.04895518573789816,0.001668125889137409,0.0,0.42845923214012593,0.4626983406432075
2.224000,0.5,-0.05635483717454227,0.5546448722501358,0.000000,1.570796,0.000000,0.0,-0.04531430353188397,0.005568301845403814,0.0,0.481761319363423,0.5123456484233928
2.232000,0.5,-0.056701366684980666,0.5547063432969315,0.000000,1.570796,0.000000,0.0,-0.04124700462808338,0.009865656263911702,0.0,0.5350634065867199,0.561992956203578
2.240000,0.5,-0.0570136521373975,0.5548037818929242,0.000000,1.570796,0.000000,0.0,-0.03675328902649643,0.014560189144661076,0.0,0.588365493810017,0.6116402639837633
2.248000,0.5,-0.057288282198210506,0.5549403654658122,0.000000,1.570796,0.000000,0.0,-0.031833156727123106,0.019651900487651926,0.0,0.6416675810333141,0.6612875717639485
2.256000,0.5,-0.05752184553383738,0.5551192714432928,0.000000,1.570796,0.000000,0.0,-0.02648660772996339,0.025140790292884255,0.0,0.6949696682566112,0.7109348795441338
2.264000,0.5,-0.05771120992064543,0.5553433820489078,0.000000,1.570796,0.000000,0.0,-0.02088369533773804,0.030846999541113584,0.0,0.6791995115904489,0.6875270578783711
2.272000,0.5,-0.057857173589196495,0.5556114224117737,0.000000,1.570796,0.000000,0.0,-0.015685783077534272,0.03607102876103985,0.0,0.6202785534604927,0.6184802471031936
2.280000,0.5,-0.05796343943032608,0.5559190455104545,0.000000,1.570796,0.000000,0.0,-0.010959238482370149,0.04074268349476469,0.0,0.5613575953305365,0.549433436328016
2.288000,0.5,-0.05803377838535452,0.55626183234906,0.000000,1.570796,0.000000,0.0,-0.006704061552245679,0.04486196374228811,0.0,0.5024366372005802,0.48038662555283856
2.296000,0.5,-0.05807196139560212,0.5566353639317011,0.000000,1.570796,0.000000,0.0,-0.00292025228716086,0.04842886950361012,0.0,0.44351567907062406,0.411339814777661
2.304000,0.5,-0.058081759402389195,0.5570352212624881,0.000000,1.570796,0.000000,0.0,0.0003921893128843116,0.0514434007787307,0.0,0.3845947209406678,0.3422930040024835
2.312000,0.5,-0.05806694334703607,0.5574569853455309,0.000000,1.570796,0.000000,0.0,0.0032332632478896915,0.05390555756764974,0.0,0.3256737628107149,0.2732461932273099
2.320000,0.5,-0.05803128417086307,0.5578962371849405,0.000000,1.570796,0.000000,0.0,0.005602969517855584,0.055815339870367506,0.0,0.2667528046807587,0.20419938245213232
2.328000,0.5,-0.05797855281519049,0.558348557784827,0.000000,1.570796,0.000000,0.0,0.007501308122781835,0.05717274768688385,0.0,0.20783184655080256,0.13515257167695482
2.336000,0.5,-0.057912520221338665,0.5588095281493007,0.000000,1.570796,0.000000,0.0,0.008928279062668427,0.057977781017198776,0.0,0.14891088842084632,0.06610576090177733
2.344000,0.5,-0.05783695733062791,0.5592747292824723,0.000000,1.570796,0.000000,0.0,0.009883882337515373,0.058230439861312294,0.0,0.08998993029089009,-0.002941049873400159
2.352000,0.5,-0.057755635084378525,0.5597397421884519,0.000000,1.570796,0.000000,0.0,0.010368117947322668,0.05793072421922439,0.0,0.03106897216093385,-0.07198786064857765
2.360000,0.5,-0.05767232442391085,0.56020014787135,0.000000,1.570796,0.000000,0.0,0.01038098589209032,0.057078634090935054,0.0,-0.027851985969022275,-0.14103467142375514
2.368000,0.5,-0.057590795331290606,0.5606515287911154,0.000000,1.570796,0.000000,0.0,0.009925600884775213,0.05567889660370572,0.0,-0.08003059990987137,-0.19984878356399546
2.376000,0.5,-0.057513957274046575,0.5610907733905536,0.000000,1.570796,0.000000,0.0,0.009283192096601129,0.05415832671621727,0.0,-0.08057159713364984,-0.1802936883081179
2.384000,0.5,-0.057442275799019095,0.5615184791939402,0.000000,1.570796,0.000000,0.0,0.008636455330636816,0.05279419759077584,0.0,-0.0811125943574283,-0.16073859305224034
2.392000,0.5,-0.05737578553003049,0.5619358977273715,0.000000,1.570796,0.000000,0.0,0.007985390586882274,0.05158650922738142,0.0,-0.08165359158120677,-0.14118349779636277
2.400000,0.5,-0.05731452109090308,0.5623442805169437,0.000000,1.570796,0.000000,0.0,0.007329997865337505,0.05053526162603403,0.0,-0.08219458880498524,-0.12162840254048521
2.408000,0.5,-0.0572585171054592,0.5627448790887535,0.000000,1.570796,0.000000,0.0,0.006670277166002509,0.04964045478673366,0.0,-0.08273558602876371,-0.10207330728460765
2.416000,0.5,-0.05720780819752115,0.563138944968897,0.000000,1.570796,0.000000,0.0,0.006006228488877285,0.04890208870948031,0.0,-0.08327658325254218,-0.08251821202873008
2.424000,0.5,-0.05716242899091127,0.5635277296834706,0.000000,1.570796,0.000000,0.0,0.005337851833961833,0.048320163394273974,0.0,-0.08381758047632065,-0.06296311677285252
2.432000,0.5,-0.05712241410945187,0.5639124847585707,0.000000,1.570796,0.000000,0.0,0.004665147201256153,0.04789467884111467,0.0,-0.08435857770009912,-0.043408021516974954
2.440000,0.5,-0.05708779817696528,0.5642944617202938,0.000000,1.570796,0.000000,0.0,0.003988114590760246,0.04762563505000238,0.0,-0.08489957492387759,-0.023852926261097362
2.448000,0.5,-0.05705861581727381,0.5646749120947363,0.000000,1.570796,0.000000,0.0,0.0033067540024741106,0.0475130320209371,0.0,-0.08544057214765606,-0.004297831005219799
2.456000,0.5,-0.0570349016541998,0.5650550874079945,0.000000,1.570796,0.000000,0.0,0.0026210654363977483,0.04755686975391886,0.0,-0.08598156937143453,0.015257264250657765
2.464000,0.5,-0.05701669031156555,0.5654362391861646,0.000000,1.570796,0.000000,0.0,0.001931048892531157,0.04775714824894763,0.0,-0.08652256659521299,0.03481235950653533
2.472000,0.5,-0.05700401641319341,0.565819618955343,0.000000,1.570796,0.000000,0.0,0.0012367043708743381,0.04811386750602343,0.0,-0.08706356381899145,0.05436745476241289
2.480000,0.5,-0.05699688850793978,0.5662064350759686,0.000000,1.570796,0.000000,0.0,0.000556397523333702,0.04859662420845824,0.0,-0.07898078063776184,0.05964636052948924
2.488000,0.5,-0.05699479770962653,0.5665970393235187,0.000000,1.570796,0.000000,0.0,-1.2822556649673167e-05,0.049044758972244945,0.0,-0.06332423935808185,0.05238733041718757
2.496000,0.5,-0.05699675966263221,0.5669909963602154,0.000000,1.570796,0.000000,0.0,-0.00045679030639560815,0.049434821495133244,0.0,-0.047667698078401835,0.04512830030488589
2.504000,0.5,-0.05700177234831489,0.5673878416081316,0.000000,1.570796,0.000000,0.0,-0.000775505725904103,0.04976681177712312,0.0,-0.03201115679872184,0.03786927019258422
2.512000,0.5,-0.05700883374803271,0.5677871104893404,0.000000,1.570796,0.000000,0.0,-0.000968968815175158,0.05004072981821459,0.0,-0.016354615519041826,0.03061024008028255
2.520000,0.5,-0.05701694184314373,0.5681883384259141,0.000000,1.570796,0.000000,0.0,-0.0010371795742087726,0.05025657561840765,0.0,-0.0006980742393618289,0.023351209967980874
2.528000,0.5,-0.05702509461500607,0.5685910608399257,0.000000,1.570796,0.000000,0.0,-0.0009801380030049472,0.05041434917770228,0.0,0.014958467040318169,0.016092179855679206
2.536000,0.5,-0.05703229004497785,0.5689948131534482,0.000000,1.570796,0.000000,0.0,-0.0007978441015636818,0.050514050496098514,0.0,0.03061500831999818,0.008833149743377532
2.544000,0.5,-0.05703752611441713,0.5693991307885543,0.000000,1.570796,0.000000,0.0,-0.0004902978698849763,0.05055567957359632,0.0,0.04627154959967819,0.001574119631075857
2.552000,0.5,-0.057039800804682045,0.5698035491673167,0.000000,1.570796,0.000000,0.0,-5.749930796883091e-05,0.050539236410195726,0.0,0.06192809087935819,-0.005684910481225824
2.560000,0.5,-0.05703811209713066,0.5702076037118082,0.000000,1.570796,0.000000,0.0,0.0005005515841847554,0.05046472100589671,0.0,0.07758463215903819,-0.012943940593527492
2.568000,0.5,-0.05703145797312112,0.570610829844102,0.000000,1.570796,0.000000,0.0,0.0011838548065757825,0.050332133360699284,0.0,0.09324117343871821,-0.02020297070582916
2.576000,0.5,-0.05701883641401149,0.5710127629862705,0.000000,1.570796,0.000000,0.0,0.001992410359204248,0.050141473474603446,0.0,0.10889771471839818,-0.02746200081813084
2.584000,0.5,-0.056999245421185694,0.5714129385659538,0.000000,1.570796,0.000000,0.0,0.0029259865548992383,0.04989280575802286,0.0,0.12276726449882504,-0.034224236648618366
2.592000,0.5,-0.056972330046800204,0.5718110718947614,0.000000,1.570796,0.000000,0.0,0.0037502232267657186,0.04965128373342654,0.0,0.08329190346779498,-0.026156269500462515
2.600000,0.5,-0.05694008399059277,0.5722075312223212,0.000000,1.570796,0.000000,0.0,0.004258657010383959,0.049474305446015464,0.0,0.04381654243676493,-0.01808830235230667
2.608000,0.5,-0.05690503367566939,0.5726028328985303,0.000000,1.570796,0.000000,0.0,0.00445128790575396,0.04936187089578963,0.0,0.004341181405734876,-0.010020335204150826
2.616000,0.5,-0.056869705525136045,0.5729974932732864,0.000000,1.570796,0.000000,0.0,0.004328115912875716,0.049313980082749044,0.0,-0.03513417962529518,-0.0019523680559949824
2.624000,0.5,-0.05683662596209871,0.5733920286964868,0.000000,1.570796,0.000000,0.0,0.003889141031749234,0.049330633006893713,0.0,-0.0746095406563252,0.0061155990921608686
2.632000,0.5,-0.05680832140966338,0.5737869555180292,0.000000,1.570796,0.000000,0.0,0.003134363262374512,0.04941182966822363,0.0,-0.11408490168735526,0.014183566240316713
2.640000,0.5,-0.05678731829093604,0.5741827900878108,0.000000,1.570796,0.000000,0.0,0.0020637826047515476,0.049557570066738776,0.0,-0.1535602627183853,0.022251533388472557
2.648000,0.5,-0.05677614302902269,0.5745800487557294,0.000000,1.570796,0.000000,0.0,0.0006773990588803454,0.049767854202439184,0.0,-0.1930356237494154,0.030319500536628415
2.656000,0.5,-0.05677732204702929,0.5749792478716824,0.000000,1.570796,0.000000,0.0,-0.001024787375239103,0.050042682075324835,0.0,-0.23251098478044546,0.03838746768478426
2.664000,0.5,-0.05679338176806184,0.575380903785567,0.000000,1.570796,0.000000,0.0,-0.0030427766976067853,0.050382053685395736,0.0,-0.2719863458114755,0.0464554348329401
2.672000,0.5,-0.05682684861522632,0.5757855328472812,0.000000,1.570796,0.000000,0.0,-0.005376568908222712,0.050785969032651875,0.0,-0.31146170684250557,0.05452340198109595
2.680000,0.5,-0.05688024901162873,0.576193651406722,0.000000,1.570796,0.000000,0.0,-0.00802616400708688,0.05125442811709326,0.0,-0.3509370678735356,0.06259136912925178
2.688000,0.5,-0.05695610938037504,0.5766057758137872,0.000000,1.570796,0.000000,0.0,-0.010991561994199286,0.05178743093871991,0.0,-0.3904124289045656,0.07065933627740764
2.696000,0.5,-0.057056739459059036,0.5770223629239173,0.000000,1.570796,0.000000,0.0,-0.014120142509246732,0.052343073148069415,0.0,-0.3582233328620698,0.05905068592134008
2.704000,0.5,-0.057180149049622056,0.5774426889767698,0.000000,1.570796,0.000000,0.0,-0.01660541811118842,0.05269992077986335,0.0,-0.26309556762335173,0.030161222027144073
2.712000,0.5,-0.057320396756512966,0.5778649453478321,0.000000,1.570796,0.000000,0.0,-0.018329671591220363,0.052825652700503725,0.0,-0.1679678023846337,0.001271758132948067
2.720000,0.5,-0.05747139440275649,0.5782872831114149,0.000000,1.570796,0.000000,0.0,-0.019292902949342564,0.05272026890999052,0.0,-0.07284003714591569,-0.027617705761247932
2.728000,0.5,-0.05762705381137736,0.5787078533418288,0.000000,1.570796,0.000000,0.0,-0.019495112185555018,0.05238376940832375,0.0,0.022287728092802273,-0.056507169655443945
2.736000,0.5,-0.057781286805400275,0.579124807113385,0.000000,1.570796,0.000000,0.0,-0.018936299299857726,0.05181615419550342,0.0,0.1174154933315203,-0.08539663354963994
2.744000,0.5,-0.057928005207849985,0.5795362955003938,0.000000,1.570796,0.000000,0.0,-0.01761646429225069,0.05101742327152951,0.0,0.2125432585702383,-0.11428609744383597
2.752000,0.5,-0.0580611208417512,0.5799404695771663,0.000000,1.570796,0.000000,0.0,-0.01553560716273391,0.04998757663640204,0.0,0.30767102380895633,-0.14317556133803197
2.760000,0.5,-0.05817454553012863,0.5803354804180132,0.000000,1.570796,0.000000,0.0,-0.012693727911307382,0.048726614290121005,0.0,0.40279878904767435,-0.17206502523222797
2.768000,0.5,-0.05826219109600702,0.5807194790972452,0.000000,1.570796,0.000000,0.0,-0.009090826537971115,0.04723453623268639,0.0,0.4979265542863924,-0.20095448912642394
2.776000,0.5,-0.05831796936241108,0.5810906166891731,0.000000,1.570796,0.000000,0.0,-0.004726903042725099,0.045511342464098214,0.0,0.5930543195251103,-0.22984395302061994
2.784000,0.5,-0.058335792152365534,0.5814470442681077,0.000000,1.570796,0.000000,0.0,0.0003980425744306709,0.04355703298435647,0.0,0.6881820847638285,-0.258733416914816
2.792000,0.5,-0.05830957128889509,0.5817869129083597,0.000000,1.570796,0.000000,0.0,0.006284010313496166,0.041371607793461156,0.0,0.7833098500025464,-0.287622880809012
2.800000,0.5,-0.0582332185950245,0.58210837368424,0.000000,1.570796,0.000000,0.0,0.012931000174471415,0.038955066891412274,0.0,0.8784376152412643,-0.31651234470320794
2.808000,0.5,-0.05810129188245444,0.5824097097041735,0.000000,1.570796,0.000000,0.0,0.019994470817195804,0.03637783134342443,0.0,0.8510567984223678,-0.3203621868138278
