t,x,y,z,roll,pitch,yaw,vx,vy,vz,ax,ay,az
0.000000,-0.173538,0.089905,0.000000,0.000000,3.141593,0.000000,0.000000,0.000000,0.000000,0.000000,0.000000,0.000000
0.020022,-0.174282,0.090294,0.000000,0.000000,3.141593,0.000000,-0.037543,0.019348,0.000000,-0.037882,-0.006868,0.000000
0.040043,-0.175041,0.090680,0.000000,0.000000,3.141593,0.000000,-0.038296,0.019201,0.000000,-0.037370,-0.007900,0.000000
0.060065,-0.175816,0.091063,0.000000,0.000000,3.141593,0.000000,-0.039039,0.019032,0.000000,-0.036859,-0.008931,0.000000
0.080086,-0.176605,0.091442,0.000000,0.000000,3.141593,0.000000,-0.039772,0.018843,0.000000,-0.036347,-0.009963,0.000000
0.100108,-0.177408,0.091817,0.000000,0.000000,3.141593,0.000000,-0.040495,0.018633,0.000000,-0.035835,-0.010994,0.000000
0.120129,-0.178226,0.092188,0.000000,0.000000,3.141593,0.000000,-0.041207,0.018403,0.000000,-0.035324,-0.012026,0.000000
0.140151,-0.179058,0.092554,0.000000,0.000000,3.141593,0.000000,-0.041909,0.018152,0.000000,-0.034812,-0.013058,0.000000
0.160172,-0.179904,0.092915,0.000000,0.000000,3.141593,0.000000,-0.042601,0.017880,0.000000,-0.034300,-0.014089,0.000000
0.180194,-0.180764,0.093270,0.000000,0.000000,3.141593,0.000000,-0.043282,0.017587,0.000000,-0.033789,-0.015121,0.000000
0.200215,-0.181637,0.093619,0.000000,0.000000,3.141593,0.000000,-0.043954,0.017274,0.000000,-0.033277,-0.016152,0.000000
0.220237,-0.182524,0.093961,0.000000,0.000000,3.141593,0.000000,-0.044615,0.016941,0.000000,-0.032765,-0.017184,0.000000
0.240258,-0.183424,0.094297,0.000000,0.000000,3.141593,0.000000,-0.045266,0.016586,0.000000,-0.032254,-0.018216,0.000000
0.260280,-0.184336,0.094625,0.000000,0.000000,3.141593,0.000000,-0.045907,0.016211,0.000000,-0.031742,-0.019247,0.000000
0.280301,-0.185262,0.094946,0.000000,0.000000,3.141593,0.000000,-0.046537,0.015816,0.000000,-0.031230,-0.020279,0.000000
0.300323,-0.186200,0.095258,0.000000,0.000000,3.141593,0.000000,-0.047157,0.015399,0.000000,-0.030719,-0.021310,0.000000
0.320344,-0.187150,0.095562,0.000000,0.000000,3.141593,0.000000,-0.047767,0.014962,0.000000,-0.030207,-0.022342,0.000000
0.340366,-0.188112,0.095857,0.000000,0.000000,3.141593,0.000000,-0.048367,0.014505,0.000000,-0.029695,-0.023374,0.000000
0.360387,-0.189087,0.096143,0.000000,0.000000,3.141593,0.000000,-0.048956,0.014026,0.000000,-0.029184,-0.024405,0.000000
0.380409,-0.190073,0.096419,0.000000,0.000000,3.141593,0.000000,-0.049535,0.013527,0.000000,-0.028672,-0.025437,0.000000
0.400430,-0.191070,0.096685,0.000000,0.000000,3.141593,0.000000,-0.050104,0.013008,0.000000,-0.028160,-0.026468,0.000000
0.420452,-0.192079,0.096940,0.000000,0.000000,3.141593,0.000000,-0.050663,0.012467,0.000000,-0.027648,-0.027500,0.000000
0.440473,-0.193099,0.097184,0.000000,0.000000,3.141593,0.000000,-0.051211,0.011907,0.000000,-0.027137,-0.028532,0.000000
0.460495,-0.194130,0.097416,0.000000,0.000000,3.141593,0.000000,-0.051749,0.011325,0.000000,-0.026625,-0.029563,0.000000
0.480516,-0.195171,0.097637,0.000000,0.000000,3.141593,0.000000,-0.052277,0.010723,0.000000,-0.026113,-0.030595,0.000000
0.500538,-0.196223,0.097846,0.000000,0.000000,3.141593,0.000000,-0.052795,0.010100,0.000000,-0.025602,-0.031626,0.000000
0.520559,-0.197285,0.098041,0.000000,0.000000,3.141593,0.000000,-0.053303,0.009456,0.000000,-0.025090,-0.032658,0.000000
0.540581,-0.198357,0.098224,0.000000,0.000000,3.141593,0.000000,-0.053800,0.008792,0.000000,-0.024578,-0.033690,0.000000
0.560602,-0.199439,0.098393,0.000000,0.000000,3.141593,0.000000,-0.054287,0.008107,0.000000,-0.024067,-0.034721,0.000000
0.580624,-0.200531,0.098549,0.000000,0.000000,3.141593,0.000000,-0.054764,0.007402,0.000000,-0.023555,-0.035753,0.000000
0.600645,-0.201632,0.098689,0.000000,0.000000,3.141593,0.000000,-0.055230,0.006676,0.000000,-0.023043,-0.036784,0.000000
0.620667,-0.202742,0.098816,0.000000,0.000000,3.141593,0.000000,-0.055686,0.005929,0.000000,-0.022532,-0.037816,0.000000
0.640689,-0.203862,0.098927,0.000000,0.000000,3.141593,0.000000,-0.056132,0.005161,0.000000,-0.022020,-0.038848,0.000000
0.660710,-0.204990,0.099022,0.000000,0.000000,3.141593,0.000000,-0.056568,0.004373,0.000000,-0.021508,-0.039879,0.000000
0.680732,-0.206127,0.099102,0.000000,0.000000,3.141593,0.000000,-0.056994,0.003564,0.000000,-0.020997,-0.040911,0.000000
0.700753,-0.207272,0.099165,0.000000,0.000000,3.141593,0.000000,-0.057409,0.002735,0.000000,-0.020485,-0.041942,0.000000
0.720775,-0.208426,0.099211,0.000000,0.000000,3.141593,0.000000,-0.057814,0.001885,0.000000,-0.019973,-0.042974,0.000000
0.740796,-0.209587,0.099240,0.000000,0.000000,3.141593,0.000000,-0.058209,0.001014,0.000000,-0.019462,-0.044005,0.000000
0.760818,-0.210756,0.099252,0.000000,0.000000,3.141593,0.000000,-0.058593,0.000123,0.000000,-0.018950,-0.045037,0.000000
0.780839,-0.211933,0.099245,0.000000,0.000000,3.141593,0.000000,-0.058967,-0.000789,0.000000,-0.018438,-0.046069,0.000000
0.800861,-0.213118,0.099220,0.000000,0.000000,3.141593,0.000000,-0.059331,-0.001722,0.000000,-0.017927,-0.047100,0.000000
0.820882,-0.214309,0.099176,0.000000,0.000000,3.141593,0.000000,-0.059685,-0.002675,0.000000,-0.017415,-0.048132,0.000000
0.840904,-0.215507,0.099113,0.000000,0.000000,3.141593,0.000000,-0.060029,-0.003649,0.000000,-0.016903,-0.049163,0.000000
0.860925,-0.216713,0.099030,0.000000,0.000000,3.141593,0.000000,-0.060362,-0.004644,0.000000,-0.016392,-0.050195,0.000000
0.880947,-0.217924,0.098927,0.000000,0.000000,3.141593,0.000000,-0.060685,-0.005659,0.000000,-0.015880,-0.051227,0.000000
0.900968,-0.219143,0.098803,0.000000,0.000000,3.141593,0.000000,-0.060988,-0.006686,0.000000,-0.013145,-0.050182,0.000000
0.920990,-0.220366,0.098659,0.000000,0.000000,3.141593,0.000000,-0.061197,-0.007655,0.000000,-0.007757,-0.046662,0.000000
0.941011,-0.221592,0.098497,0.000000,0.000000,3.141593,0.000000,-0.061298,-0.008554,0.000000,-0.002369,-0.043141,0.000000
0.961033,-0.222820,0.098317,0.000000,0.000000,3.141593,0.000000,-0.061292,-0.009383,0.000000,0.003018,-0.039621,0.000000
0.981054,-0.224046,0.098122,0.000000,0.000000,3.141593,0.000000,-0.061178,-0.010141,0.000000,0.008406,-0.036100,0.000000
1.001076,-0.225269,0.097912,0.000000,0.000000,3.141593,0.000000,-0.060955,-0.010828,0.000000,0.013793,-0.032579,0.000000
1.021097,-0.226486,0.097688,0.000000,0.000000,3.141593,0.000000,-0.060625,-0.011445,0.000000,0.019181,-0.029059,0.000000
1.041119,-0.227696,0.097454,0.000000,0.000000,3.141593,0.000000,-0.060187,-0.011992,0.000000,0.024568,-0.025538,0.000000
1.061140,-0.228895,0.097209,0.000000,0.000000,3.141593,0.000000,-0.059641,-0.012468,0.000000,0.029956,-0.022018,0.000000
1.081162,-0.230083,0.096955,0.000000,0.000000,3.141593,0.000000,-0.058988,-0.012873,0.000000,0.035343,-0.018497,0.000000
1.101183,-0.231257,0.096694,0.000000,0.000000,3.141593,0.000000,-0.058226,-0.013209,0.000000,0.040731,-0.014977,0.000000
1.121205,-0.232414,0.096427,0.000000,0.000000,3.141593,0.000000,-0.057357,-0.013473,0.000000,0.046118,-0.011456,0.000000
1.141226,-0.233553,0.096155,0.000000,0.000000,3.141593,0.000000,-0.056380,-0.013667,0.000000,0.051506,-0.007936,0.000000
1.161248,-0.234671,0.095880,0.000000,0.000000,3.141593,0.000000,-0.055294,-0.013791,0.000000,0.056894,-0.004415,0.000000
1.181269,-0.235766,0.095603,0.000000,0.000000,3.141593,0.000000,-0.054101,-0.013844,0.000000,0.062281,-0.000895,0.000000
1.201291,-0.236837,0.095326,0.000000,0.000000,3.141593,0.000000,-0.052800,-0.013827,0.000000,0.067669,0.002626,0.000000
1.221312,-0.237880,0.095050,0.000000,0.000000,3.141593,0.000000,-0.051392,-0.013739,0.000000,0.073056,0.006146,0.000000
1.241334,-0.238894,0.094776,0.000000,0.000000,3.141593,0.000000,-0.049875,-0.013581,0.000000,0.078444,0.009667,0.000000
1.261355,-0.239876,0.094506,0.000000,0.000000,3.141593,0.000000,-0.048251,-0.013352,0.000000,0.083831,0.013187,0.000000
1.281377,-0.240825,0.094242,0.000000,0.000000,3.141593,0.000000,-0.046518,-0.013053,0.000000,0.089219,0.016708,0.000000
1.301399,-0.241738,0.093984,0.000000,0.000000,3.141593,0.000000,-0.044678,-0.012683,0.000000,0.094606,0.020228,0.000000
1.321420,-0.242613,0.093735,0.000000,0.000000,3.141593,0.000000,-0.042730,-0.012243,0.000000,0.099994,0.023749,0.000000
1.341442,-0.243449,0.093494,0.000000,0.000000,3.141593,0.000000,-0.040674,-0.011732,0.000000,0.105381,0.027270,0.000000
1.361463,-0.244241,0.093265,0.000000,0.000000,3.141593,0.000000,-0.038510,-0.011151,0.000000,0.110769,0.030790,0.000000
1.381485,-0.244990,0.093048,0.000000,0.000000,3.141593,0.000000,-0.036246,-0.010492,0.000000,0.113481,0.036761,0.000000
1.401506,-0.245693,0.092847,0.000000,0.000000,3.141593,0.000000,-0.034016,-0.009633,0.000000,0.109271,0.049071,0.000000
1.421528,-0.246353,0.092664,0.000000,0.000000,3.141593,0.000000,-0.031870,-0.008527,0.000000,0.105060,0.061382,0.000000
1.441549,-0.246970,0.092507,0.000000,0.000000,3.141593,0.000000,-0.029809,-0.007175,0.000000,0.100849,0.073693,0.000000
1.461571,-0.247547,0.092379,0.000000,0.000000,3.141593,0.000000,-0.027832,-0.005576,0.000000,0.096639,0.086004,0.000000
1.481592,-0.248085,0.092285,0.000000,0.000000,3.141593,0.000000,-0.025939,-0.003731,0.000000,0.092428,0.098314,0.000000
1.501614,-0.248586,0.092231,0.000000,0.000000,3.141593,0.000000,-0.024131,-0.001639,0.000000,0.088217,0.110625,0.000000
1.521635,-0.249052,0.092221,0.000000,0.000000,3.141593,0.000000,-0.022407,0.000699,0.000000,0.084007,0.122936,0.000000
1.541657,-0.249484,0.092261,0.000000,0.000000,3.141593,0.000000,-0.020767,0.003283,0.000000,0.079796,0.135247,0.000000
1.561678,-0.249884,0.092354,0.000000,0.000000,3.141593,0.000000,-0.019212,0.006114,0.000000,0.075585,0.147558,0.000000
1.581700,-0.250254,0.092507,0.000000,0.000000,3.141593,0.000000,-0.017740,0.009192,0.000000,0.071375,0.159868,0.000000
1.601721,-0.250595,0.092724,0.000000,0.000000,3.141593,0.000000,-0.016353,0.012516,0.000000,0.067164,0.172179,0.000000
1.621743,-0.250909,0.093010,0.000000,0.000000,3.141593,0.000000,-0.015051,0.016087,0.000000,0.062953,0.184490,0.000000
1.641764,-0.251198,0.093370,0.000000,0.000000,3.141593,0.000000,-0.013833,0.019904,0.000000,0.058743,0.196801,0.000000
1.661786,-0.251464,0.093809,0.000000,0.000000,3.141593,0.000000,-0.012699,0.023967,0.000000,0.054532,0.209111,0.000000
1.681807,-0.251707,0.094331,0.000000,0.000000,3.141593,0.000000,-0.011649,0.028277,0.000000,0.050321,0.221422,0.000000
1.701829,-0.251931,0.094942,0.000000,0.000000,3.141593,0.000000,-0.010684,0.032833,0.000000,0.046111,0.233733,0.000000
1.721850,-0.252136,0.095648,0.000000,0.000000,3.141593,0.000000,-0.009803,0.037636,0.000000,0.041900,0.246044,0.000000
1.741872,-0.252324,0.096451,0.000000,0.000000,3.141593,0.000000,-0.009006,0.042686,0.000000,0.037689,0.258355,0.000000
1.761893,-0.252497,0.097358,0.000000,0.000000,3.141593,0.000000,-0.008293,0.047980,0.000000,0.033886,0.268156,0.000000
1.781915,-0.252656,0.098371,0.000000,0.000000,3.141593,0.000000,-0.007591,0.053069,0.000000,0.036221,0.240172,0.000000
1.801936,-0.252800,0.099480,0.000000,0.000000,3.141593,0.000000,-0.006843,0.057597,0.000000,0.038555,0.212188,0.000000
1.821958,-0.252930,0.100674,0.000000,0.000000,3.141593,0.000000,-0.006047,0.061566,0.000000,0.040889,0.184205,0.000000
1.841979,-0.253042,0.101941,0.000000,0.000000,3.141593,0.000000,-0.005205,0.064973,0.000000,0.043224,0.156221,0.000000
1.862001,-0.253138,0.103272,0.000000,0.000000,3.141593,0.000000,-0.004317,0.067821,0.000000,0.045558,0.128237,0.000000
1.882022,-0.253215,0.104653,0.000000,0.000000,3.141593,0.000000,-0.003381,0.070108,0.000000,0.047892,0.100254,0.000000
1.902044,-0.253273,0.106075,0.000000,0.000000,3.141593,0.000000,-0.002399,0.071836,0.000000,0.050227,0.072270,0.000000
1.922066,-0.253311,0.107526,0.000000,0.000000,3.141593,0.000000,-0.001370,0.073002,0.000000,0.052561,0.044286,0.000000
1.942087,-0.253327,0.108995,0.000000,0.000000,3.141593,0.000000,-0.000294,0.073609,0.000000,0.054895,0.016303,0.000000
1.962109,-0.253322,0.110470,0.000000,0.000000,3.141593,0.000000,0.000828,0.073655,0.000000,0.057230,-0.011681,0.000000
1.982130,-0.253294,0.111940,0.000000,0.000000,3.141593,0.000000,0.001998,0.073141,0.000000,0.059564,-0.039665,0.000000
2.002152,-0.253242,0.113395,0.000000,0.000000,3.141593,0.000000,0.003213,0.072067,0.000000,0.061898,-0.067648,0.000000
2.022173,-0.253165,0.114822,0.000000,0.000000,3.141593,0.000000,0.004476,0.070432,0.000000,0.064232,-0.095632,0.000000
2.042195,-0.253062,0.116211,0.000000,0.000000,3.141593,0.000000,0.005785,0.068237,0.000000,0.066567,-0.123616,0.000000
2.062216,-0.252933,0.117551,0.000000,0.000000,3.141593,0.000000,0.007142,0.065482,0.000000,0.068901,-0.151599,0.000000
2.082238,-0.252776,0.118830,0.000000,0.000000,3.141593,0.000000,0.008545,0.062167,0.000000,0.071235,-0.179583,0.000000
2.102259,-0.252590,0.120037,0.000000,0.000000,3.141593,0.000000,0.009994,0.058291,0.000000,0.073570,-0.207567,0.000000
2.122281,-0.252375,0.121160,0.000000,0.000000,3.141593,0.000000,0.011490,0.053855,0.000000,0.075904,-0.235550,0.000000
2.142302,-0.252130,0.122189,0.000000,0.000000,3.141593,0.000000,0.013034,0.048859,0.000000,0.078238,-0.263534,0.000000
2.162324,-0.251853,0.123113,0.000000,0.000000,3.141593,0.000000,0.014623,0.043303,0.000000,0.080573,-0.291518,0.000000
2.182345,-0.251544,0.123920,0.000000,0.000000,3.141593,0.000000,0.016260,0.037186,0.000000,0.082907,-0.319502,0.000000
2.202367,-0.251202,0.124598,0.000000,0.000000,3.141593,0.000000,0.017943,0.030509,0.000000,0.085241,-0.347485,0.000000
2.222388,-0.250825,0.125138,0.000000,0.000000,3.141593,0.000000,0.019673,0.023272,0.000000,0.087576,-0.375469,0.000000
2.242410,-0.250414,0.125527,0.000000,0.000000,3.141593,0.000000,0.021449,0.015526,0.000000,0.089630,-0.385976,0.000000
2.262431,-0.249966,0.125762,0.000000,0.000000,3.141593,0.000000,0.023258,0.008111,0.000000,0.091016,-0.354646,0.000000
2.282453,-0.249482,0.125856,0.000000,0.000000,3.141593,0.000000,0.025094,0.001324,0.000000,0.092402,-0.323315,0.000000
2.302474,-0.248961,0.125819,0.000000,0.000000,3.141593,0.000000,0.026958,-0.004835,0.000000,0.093788,-0.291985,0.000000
2.322496,-0.248402,0.125666,0.000000,0.000000,3.141593,0.000000,0.028849,-0.010368,0.000000,0.095174,-0.260655,0.000000
2.342517,-0.247806,0.125408,0.000000,0.000000,3.141593,0.000000,0.030769,-0.015273,0.000000,0.096560,-0.229325,0.000000
2.362539,-0.247170,0.125059,0.000000,0.000000,3.141593,0.000000,0.032716,-0.019550,0.000000,0.097946,-0.197995,0.000000
2.382560,-0.246495,0.124630,0.000000,0.000000,3.141593,0.000000,0.034691,-0.023201,0.000000,0.099332,-0.166665,0.000000
2.402582,-0.245781,0.124134,0.000000,0.000000,3.141593,0.000000,0.036693,-0.026224,0.000000,0.100718,-0.135335,0.000000
2.422603,-0.245026,0.123584,0.000000,0.000000,3.141593,0.000000,0.038724,-0.028620,0.000000,0.102104,-0.104005,0.000000
2.442625,-0.244230,0.122992,0.000000,0.000000,3.141593,0.000000,0.040782,-0.030389,0.000000,0.103489,-0.072675,0.000000
2.462646,-0.243393,0.122371,0.000000,0.000000,3.141593,0.000000,0.042868,-0.031530,0.000000,0.104875,-0.041345,0.000000
2.482668,-0.242513,0.121734,0.000000,0.000000,3.141593,0.000000,0.044981,-0.032044,0.000000,0.106261,-0.010015,0.000000
2.502689,-0.241591,0.121092,0.000000,0.000000,3.141593,0.000000,0.047123,-0.031931,0.000000,0.107647,0.021316,0.000000
2.522711,-0.240626,0.120459,0.000000,0.000000,3.141593,0.000000,0.049292,-0.031191,0.000000,0.109033,0.052646,0.000000
2.542733,-0.239617,0.119847,0.000000,0.000000,3.141593,0.000000,0.051489,-0.029823,0.000000,0.110419,0.083976,0.000000
2.562754,-0.238564,0.119269,0.000000,0.000000,3.141593,0.000000,0.053713,-0.027828,0.000000,0.111805,0.115306,0.000000
2.582776,-0.237466,0.118737,0.000000,0.000000,3.141593,0.000000,0.055966,-0.025206,0.000000,0.113191,0.146636,0.000000
2.602797,-0.236323,0.118264,0.000000,0.000000,3.141593,0.000000,0.058246,-0.021957,0.000000,0.114577,0.177966,0.000000
2.622819,-0.235134,0.117862,0.000000,0.000000,3.141593,0.000000,0.060554,-0.018080,0.000000,0.115963,0.209296,0.000000
2.642840,-0.233899,0.117544,0.000000,0.000000,3.141593,0.000000,0.062773,-0.013677,0.000000,0.095236,0.221288,0.000000
2.662862,-0.232625,0.117314,0.000000,0.000000,3.141593,0.000000,0.064272,-0.009302,0.000000,0.054419,0.215710,0.000000
2.682883,-0.231330,0.117171,0.000000,0.000000,3.141593,0.000000,0.064953,-0.005039,0.000000,0.013603,0.210133,0.000000
2.702905,-0.230030,0.117111,0.000000,0.000000,3.141593,0.000000,0.064816,-0.000888,0.000000,-0.027214,0.204555,0.000000
2.722926,-0.228740,0.117134,0.000000,0.000000,3.141593,0.000000,0.063863,0.003152,0.000000,-0.068031,0.198977,0.000000
2.742948,-0.227478,0.117237,0.000000,0.000000,3.141593,0.000000,0.062092,0.007080,0.000000,-0.108847,0.193400,0.000000
2.762969,-0.226259,0.117417,0.000000,0.000000,3.141593,0.000000,0.059504,0.010896,0.000000,-0.149664,0.187822,0.000000
2.782991,-0.225101,0.117673,0.000000,0.000000,3.141593,0.000000,0.056099,0.014601,0.000000,-0.190480,0.182245,0.000000
2.803012,-0.224019,0.118001,0.000000,0.000000,3.141593,0.000000,0.051877,0.018194,0.000000,-0.231297,0.176667,0.000000
2.823034,-0.223029,0.118400,0.000000,0.000000,3.141593,0.000000,0.046837,0.021675,0.000000,-0.272114,0.171090,0.000000
2.843055,-0.222148,0.118868,0.000000,0.000000,3.141593,0.000000,0.040981,0.025044,0.000000,-0.312930,0.165512,0.000000
2.863077,-0.221393,0.119402,0.000000,0.000000,3.141593,0.000000,0.034307,0.028302,0.000000,-0.353747,0.159934,0.000000
2.883098,-0.220780,0.120001,0.000000,0.000000,3.141593,0.000000,0.026816,0.031449,0.000000,-0.394563,0.154357,0.000000
2.903120,-0.220325,0.120661,0.000000,0.000000,3.141593,0.000000,0.018507,0.034483,0.000000,-0.435380,0.148779,0.000000
2.923141,-0.220045,0.121381,0.000000,0.000000,3.141593,0.000000,0.009382,0.037406,0.000000,-0.476197,0.143202,0.000000
2.943163,-0.219950,0.122157,0.000000,0.000000,3.141593,0.000000,0.000211,0.040056,0.000000,-0.429582,0.119310,0.000000
2.963184,-0.220028,0.122981,0.000000,0.000000,3.141593,0.000000,-0.007807,0.042181,0.000000,-0.371333,0.092982,0.000000
2.983206,-0.220255,0.123843,0.000000,0.000000,3.141593,0.000000,-0.014658,0.043779,0.000000,-0.313084,0.066654,0.000000
3.003227,-0.220608,0.124731,0.000000,0.000000,3.141593,0.000000,-0.020343,0.044850,0.000000,-0.254835,0.040326,0.000000
3.023249,-0.221062,0.125635,0.000000,0.000000,3.141593,0.000000,-0.024862,0.045394,0.000000,-0.196586,0.013998,0.000000
3.043270,-0.221595,0.126545,0.000000,0.000000,3.141593,0.000000,-0.028215,0.045411,0.000000,-0.138336,-0.012330,0.000000
3.063292,-0.222184,0.127450,0.000000,0.000000,3.141593,0.000000,-0.030402,0.044900,0.000000,-0.080087,-0.038659,0.000000
3.083313,-0.222805,0.128339,0.000000,0.000000,3.141593,0.000000,-0.031422,0.043863,0.000000,-0.021838,-0.064987,0.000000
3.103335,-0.223434,0.129203,0.000000,0.000000,3.141593,0.000000,-0.031276,0.042298,0.000000,0.036411,-0.091315,0.000000
3.123356,-0.224050,0.130030,0.000000,0.000000,3.141593,0.000000,-0.029984,0.040219,0.000000,0.084918,-0.111448,0.000000
3.143378,-0.224632,0.130813,0.000000,0.000000,3.141593,0.000000,-0.028174,0.038025,0.000000,0.095934,-0.107742,0.000000
3.163399,-0.225176,0.131553,0.000000,0.000000,3.141593,0.000000,-0.026143,0.035904,0.000000,0.106951,-0.104037,0.000000
3.183421,-0.225677,0.132251,0.000000,0.000000,3.141593,0.000000,-0.023891,0.033859,0.000000,0.117967,-0.100331,0.000000
3.203443,-0.226131,0.132909,0.000000,0.000000,3.141593,0.000000,-0.021419,0.031887,0.000000,0.128983,-0.096626,0.000000
3.223464,-0.226534,0.133528,0.000000,0.000000,3.141593,0.000000,-0.018726,0.029989,0.000000,0.139999,-0.092920,0.000000
3.243486,-0.226880,0.134110,0.000000,0.000000,3.141593,0.000000,-0.015813,0.028166,0.000000,0.151016,-0.089214,0.000000
3.263507,-0.227165,0.134657,0.000000,0.000000,3.141593,0.000000,-0.012679,0.026417,0.000000,0.162032,-0.085509,0.000000
3.283529,-0.227386,0.135169,0.000000,0.000000,3.141593,0.000000,-0.009325,0.024742,0.000000,0.173048,-0.081803,0.000000
3.303550,-0.227537,0.135648,0.000000,0.000000,3.141593,0.000000,-0.005750,0.023141,0.000000,0.184065,-0.078097,0.000000
3.323572,-0.227615,0.136096,0.000000,0.000000,3.141593,0.000000,-0.001954,0.021615,0.000000,0.195081,-0.074392,0.000000
3.343593,-0.227614,0.136514,0.000000,0.000000,3.141593,0.000000,0.002062,0.020163,0.000000,0.206097,-0.070686,0.000000
3.363615,-0.227531,0.136904,0.000000,0.000000,3.141593,0.000000,0.006299,0.018784,0.000000,0.217114,-0.066981,0.000000
3.383636,-0.227360,0.137267,0.000000,0.000000,3.141593,0.000000,0.010756,0.017480,0.000000,0.228130,-0.063275,0.000000
3.403658,-0.227099,0.137604,0.000000,0.000000,3.141593,0.000000,0.015434,0.016251,0.000000,0.239146,-0.059569,0.000000
3.423679,-0.226741,0.137918,0.000000,0.000000,3.141593,0.000000,0.020332,0.015095,0.000000,0.250163,-0.055864,0.000000
3.443701,-0.226283,0.138209,0.000000,0.000000,3.141593,0.000000,0.025451,0.014014,0.000000,0.261179,-0.052158,0.000000
3.463722,-0.225720,0.138480,0.000000,0.000000,3.141593,0.000000,0.030790,0.013006,0.000000,0.272195,-0.048453,0.000000
3.483744,-0.225049,0.138730,0.000000,0.000000,3.141593,0.000000,0.036350,0.012073,0.000000,0.283212,-0.044747,0.000000
3.503765,-0.224263,0.138963,0.000000,0.000000,3.141593,0.000000,0.042131,0.011215,0.000000,0.294228,-0.041041,0.000000
3.523787,-0.223360,0.139180,0.000000,0.000000,3.141593,0.000000,0.048132,0.010430,0.000000,0.303901,-0.037545,0.000000
3.543808,-0.222338,0.139381,0.000000,0.000000,3.141593,0.000000,0.053879,0.009645,0.000000,0.270209,-0.040824,0.000000
3.563830,-0.221207,0.139566,0.000000,0.000000,3.141593,0.000000,0.058952,0.008795,0.000000,0.236516,-0.044103,0.000000
3.583851,-0.219982,0.139733,0.000000,0.000000,3.141593,0.000000,0.063350,0.007879,0.000000,0.202824,-0.047382,0.000000
3.603873,-0.218675,0.139881,0.000000,0.000000,3.141593,0.000000,0.067073,0.006898,0.000000,0.169132,-0.050661,0.000000
3.623894,-0.217300,0.140009,0.000000,0.000000,3.141593,0.000000,0.070122,0.005851,0.000000,0.135439,-0.053940,0.000000
3.643916,-0.215871,0.140115,0.000000,0.000000,3.141593,0.000000,0.072497,0.004738,0.000000,0.101747,-0.057218,0.000000
3.663937,-0.214402,0.140198,0.000000,0.000000,3.141593,0.000000,0.074197,0.003560,0.000000,0.068054,-0.060497,0.000000
3.683959,-0.212905,0.140257,0.000000,0.000000,3.141593,0.000000,0.075222,0.002316,0.000000,0.034362,-0.063776,0.000000
3.703980,-0.211394,0.140290,0.000000,0.000000,3.141593,0.000000,0.075573,0.001006,0.000000,0.000669,-0.067055,0.000000
3.724002,-0.209883,0.140297,0.000000,0.000000,3.141593,0.000000,0.075249,-0.000370,0.000000,-0.033023,-0.070334,0.000000
3.744023,-0.208386,0.140275,0.000000,0.000000,3.141593,0.000000,0.074250,-0.001811,0.000000,-0.066716,-0.073612,0.000000
3.764045,-0.206915,0.140224,0.000000,0.000000,3.141593,0.000000,0.072577,-0.003317,0.000000,-0.100408,-0.076891,0.000000
3.784066,-0.205484,0.140142,0.000000,0.000000,3.141593,0.000000,0.070230,-0.004889,0.000000,-0.134100,-0.080170,0.000000
3.804088,-0.204107,0.140028,0.000000,0.000000,3.141593,0.000000,0.067207,-0.006527,0.000000,-0.167793,-0.083449,0.000000
3.824110,-0.202797,0.139880,0.000000,0.000000,3.141593,0.000000,0.063511,-0.008231,0.000000,-0.201485,-0.086728,0.000000
3.844131,-0.201568,0.139697,0.000000,0.000000,3.141593,0.000000,0.059139,-0.010000,0.000000,-0.235178,-0.090007,0.000000
3.864153,-0.200434,0.139479,0.000000,0.000000,3.141593,0.000000,0.054093,-0.011835,0.000000,-0.268870,-0.093285,0.000000
3.884174,-0.199407,0.139223,0.000000,0.000000,3.141593,0.000000,0.048373,-0.013736,0.000000,-0.302563,-0.096564,0.000000
3.904196,-0.198501,0.138929,0.000000,0.000000,3.141593,0.000000,0.041978,-0.015702,0.000000,-0.336255,-0.099843,0.000000
3.924217,-0.197730,0.138594,0.000000,0.000000,3.141593,0.000000,0.034908,-0.017734,0.000000,-0.369948,-0.103122,0.000000
3.944239,-0.197108,0.138218,0.000000,0.000000,3.141593,0.000000,0.027164,-0.019831,0.000000,-0.403640,-0.106401,0.000000
3.964260,-0.196647,0.137799,0.000000,0.000000,3.141593,0.000000,0.018745,-0.021994,0.000000,-0.437332,-0.109679,0.000000
3.984282,-0.196362,0.137337,0.000000,0.000000,3.141593,0.000000,0.009652,-0.024223,0.000000,-0.471025,-0.112958,0.000000
4.004303,-0.196265,0.136829,0.000000,0.000000,3.141593,0.000000,0.000020,-0.026496,0.000000,-0.471240,-0.110894,0.000000
4.024325,-0.196355,0.136277,0.000000,0.000000,3.141593,0.000000,-0.008928,-0.028617,0.000000,-0.422664,-0.101043,0.000000
4.044346,-0.196616,0.135684,0.000000,0.000000,3.141593,0.000000,-0.016904,-0.030542,0.000000,-0.374088,-0.091192,0.000000
4.064368,-0.197026,0.135055,0.000000,0.000000,3.141593,0.000000,-0.023908,-0.032269,0.000000,-0.325512,-0.081341,0.000000
4.084389,-0.197567,0.134394,0.000000,0.000000,3.141593,0.000000,-0.029939,-0.033799,0.000000,-0.276936,-0.071490,0.000000
4.104411,-0.198218,0.133703,0.000000,0.000000,3.141593,0.000000,-0.034997,-0.035132,0.000000,-0.228361,-0.061638,0.000000
4.124432,-0.198961,0.132988,0.000000,0.000000,3.141593,0.000000,-0.039083,-0.036267,0.000000,-0.179785,-0.051787,0.000000
4.144454,-0.199777,0.132252,0.000000,0.000000,3.141593,0.000000,-0.042196,-0.037205,0.000000,-0.131209,-0.041936,0.000000
4.164475,-0.200645,0.131500,0.000000,0.000000,3.141593,0.000000,-0.044337,-0.037946,0.000000,-0.082633,-0.032085,0.000000
4.184497,-0.201546,0.130734,0.000000,0.000000,3.141593,0.000000,-0.045505,-0.038490,0.000000,-0.034057,-0.022234,0.000000
4.204518,-0.202460,0.129960,0.000000,0.000000,3.141593,0.000000,-0.045701,-0.038837,0.000000,0.014519,-0.012383,0.000000
4.224540,-0.203369,0.129180,0.000000,0.000000,3.141593,0.000000,-0.044924,-0.038986,0.000000,0.063095,-0.002531,0.000000
4.244561,-0.204253,0.128400,0.000000,0.000000,3.141593,0.000000,-0.043174,-0.038938,0.000000,0.111671,0.007320,0.000000
4.264583,-0.205091,0.127622,0.000000,0.000000,3.141593,0.000000,-0.040452,-0.038693,0.000000,0.160247,0.017171,0.000000
4.284604,-0.205866,0.126852,0.000000,0.000000,3.141593,0.000000,-0.036758,-0.038250,0.000000,0.208823,0.027022,0.000000
4.304626,-0.206557,0.126092,0.000000,0.000000,3.141593,0.000000,-0.032090,-0.037611,0.000000,0.257399,0.036873,0.000000
4.324647,-0.207145,0.125347,0.000000,0.000000,3.141593,0.000000,-0.026451,-0.036774,0.000000,0.305975,0.046724,0.000000
4.344669,-0.207610,0.124621,0.000000,0.000000,3.141593,0.000000,-0.019838,-0.035740,0.000000,0.354551,0.056576,0.000000
4.364690,-0.207932,0.123917,0.000000,0.000000,3.141593,0.000000,-0.012253,-0.034509,0.000000,0.403127,0.066427,0.000000
4.384712,-0.208094,0.123240,0.000000,0.000000,3.141593,0.000000,-0.003696,-0.033080,0.000000,0.451703,0.076278,0.000000
4.404733,-0.208074,0.122594,0.000000,0.000000,3.141593,0.000000,0.005828,-0.031455,0.000000,0.492901,0.085684,0.000000
4.424755,-0.207861,0.121982,0.000000,0.000000,3.141593,0.000000,0.015326,-0.029692,0.000000,0.455863,0.090376,0.000000
4.444777,-0.207465,0.121406,0.000000,0.000000,3.141593,0.000000,0.024082,-0.027836,0.000000,0.418825,0.095067,0.000000
4.464798,-0.206902,0.120868,0.000000,0.000000,3.141593,0.000000,0.032097,-0.025885,0.000000,0.381787,0.099759,0.000000
4.484820,-0.206185,0.120370,0.000000,0.000000,3.141593,0.000000,0.039370,-0.023841,0.000000,0.344750,0.104450,0.000000
4.504841,-0.205330,0.119914,0.000000,0.000000,3.141593,0.000000,0.045902,-0.021703,0.000000,0.307712,0.109142,0.000000
4.524863,-0.204352,0.119501,0.000000,0.000000,3.141593,0.000000,0.051692,-0.019471,0.000000,0.270674,0.113833,0.000000
4.544884,-0.203265,0.119135,0.000000,0.000000,3.141593,0.000000,0.056740,-0.017144,0.000000,0.233636,0.118525,0.000000
4.564906,-0.202085,0.118815,0.000000,0.000000,3.141593,0.000000,0.061047,-0.014724,0.000000,0.196598,0.123216,0.000000
4.584927,-0.200825,0.118546,0.000000,0.000000,3.141593,0.000000,0.064613,-0.012211,0.000000,0.159560,0.127908,0.000000
4.604949,-0.199502,0.118327,0.000000,0.000000,3.141593,0.000000,0.067437,-0.009603,0.000000,0.122523,0.132599,0.000000
4.624970,-0.198130,0.118162,0.000000,0.000000,3.141593,0.000000,0.069519,-0.006901,0.000000,0.085485,0.137291,0.000000
4.644992,-0.196724,0.118051,0.000000,0.000000,3.141593,0.000000,0.070860,-0.004105,0.000000,0.048447,0.141982,0.000000
4.665013,-0.195298,0.117998,0.000000,0.000000,3.141593,0.000000,0.071459,-0.001215,0.000000,0.011409,0.146673,0.000000
4.685035,-0.193867,0.118003,0.000000,0.000000,3.141593,0.000000,0.071316,0.001768,0.000000,-0.025629,0.151365,0.000000
4.705056,-0.192447,0.118069,0.000000,0.000000,3.141593,0.000000,0.070433,0.004846,0.000000,-0.062667,0.156056,0.000000
4.725078,-0.191052,0.118198,0.000000,0.000000,3.141593,0.000000,0.068807,0.008017,0.000000,-0.099705,0.160748,0.000000
4.745099,-0.189696,0.118391,0.000000,0.000000,3.141593,0.000000,0.066440,0.011282,0.000000,-0.136742,0.165439,0.000000
4.765121,-0.188396,0.118650,0.000000,0.000000,3.141593,0.000000,0.063332,0.014642,0.000000,-0.173780,0.170131,0.000000
4.785142,-0.187165,0.118978,0.000000,0.000000,3.141593,0.000000,0.059481,0.018095,0.000000,-0.210818,0.174822,0.000000
4.805164,-0.186019,0.119376,0.000000,0.000000,3.141593,0.000000,0.054890,0.021642,0.000000,-0.247856,0.179514,0.000000
4.825185,-0.184972,0.119845,0.000000,0.000000,3.141593,0.000000,0.049556,0.025283,0.000000,-0.284894,0.184205,0.000000
4.845207,-0.184040,0.120389,0.000000,0.000000,3.141593,0.000000,0.043482,0.029018,0.000000,-0.321932,0.188897,0.000000
4.865228,-0.183236,0.121008,0.000000,0.000000,3.141593,0.000000,0.036665,0.032847,0.000000,-0.358970,0.193588,0.000000
4.885250,-0.182577,0.121705,0.000000,0.000000,3.141593,0.000000,0.029107,0.036770,0.000000,-0.396007,0.198280,0.000000
4.905271,-0.182076,0.122481,0.000000,0.000000,3.141593,0.000000,0.020838,0.040776,0.000000,-0.418852,0.197749,0.000000
4.925293,-0.181740,0.123336,0.000000,0.000000,3.141593,0.000000,0.012758,0.044533,0.000000,-0.388312,0.177578,0.000000
4.945314,-0.181561,0.124261,0.000000,0.000000,3.141593,0.000000,0.005289,0.047887,0.000000,-0.357772,0.157408,0.000000
4.965336,-0.181524,0.125250,0.000000,0.000000,3.141593,0.000000,-0.001569,0.050836,0.000000,-0.327232,0.137237,0.000000
4.985357,-0.181619,0.126294,0.000000,0.000000,3.141593,0.000000,-0.007815,0.053382,0.000000,-0.296693,0.117066,0.000000
5.005379,-0.181833,0.127385,0.000000,0.000000,3.141593,0.000000,-0.013449,0.055524,0.000000,-0.266153,0.096896,0.000000
5.025400,-0.182154,0.128515,0.000000,0.000000,3.141593,0.000000,-0.018472,0.057262,0.000000,-0.235613,0.076725,0.000000
5.045422,-0.182569,0.129676,0.000000,0.000000,3.141593,0.000000,-0.022884,0.058596,0.000000,-0.205074,0.056554,0.000000
5.065443,-0.183066,0.130859,0.000000,0.000000,3.141593,0.000000,-0.026684,0.059527,0.000000,-0.174534,0.036383,0.000000
5.085465,-0.183633,0.132056,0.000000,0.000000,3.141593,0.000000,-0.029873,0.060053,0.000000,-0.143994,0.016213,0.000000
5.105487,-0.184258,0.133261,0.000000,0.000000,3.141593,0.000000,-0.032450,0.060176,0.000000,-0.113454,-0.003958,0.000000
5.125508,-0.184929,0.134463,0.000000,0.000000,3.141593,0.000000,-0.034416,0.059895,0.000000,-0.082915,-0.024129,0.000000
5.145530,-0.185632,0.135656,0.000000,0.000000,3.141593,0.000000,-0.035770,0.059210,0.000000,-0.052375,-0.044299,0.000000
5.165551,-0.186357,0.136832,0.000000,0.000000,3.141593,0.000000,-0.036513,0.058121,0.000000,-0.021835,-0.064470,0.000000
5.185573,-0.187090,0.137981,0.000000,0.000000,3.141593,0.000000,-0.036645,0.056628,0.000000,0.008704,-0.084641,0.000000
5.205594,-0.187820,0.139097,0.000000,0.000000,3.141593,0.000000,-0.036165,0.054732,0.000000,0.039244,-0.104812,0.000000
5.225616,-0.188534,0.140170,0.000000,0.000000,3.141593,0.000000,-0.035073,0.052431,0.000000,0.069784,-0.124982,0.000000
5.245637,-0.189221,0.141193,0.000000,0.000000,3.141593,0.000000,-0.033370,0.049727,0.000000,0.100324,-0.145153,0.000000
5.265659,-0.189867,0.142158,0.000000,0.000000,3.141593,0.000000,-0.031056,0.046619,0.000000,0.130863,-0.165324,0.000000
5.285680,-0.190460,0.143057,0.000000,0.000000,3.141593,0.000000,-0.028130,0.043107,0.000000,0.161403,-0.185494,0.000000
5.305702,-0.190989,0.143882,0.000000,0.000000,3.141593,0.000000,-0.024597,0.039194,0.000000,0.187856,-0.203183,0.000000
5.325723,-0.191444,0.144626,0.000000,0.000000,3.141593,0.000000,-0.020907,0.035152,0.000000,0.180801,-0.200524,0.000000
5.345745,-0.191827,0.145290,0.000000,0.000000,3.141593,0.000000,-0.017357,0.031164,0.000000,0.173747,-0.197864,0.000000
5.365766,-0.192140,0.145874,0.000000,0.000000,3.141593,0.000000,-0.013949,0.027229,0.000000,0.166692,-0.195204,0.000000
5.385788,-0.192386,0.146381,0.000000,0.000000,3.141593,0.000000,-0.010683,0.023348,0.000000,0.159638,-0.192544,0.000000
5.405809,-0.192569,0.146810,0.000000,0.000000,3.141593,0.000000,-0.007557,0.019519,0.000000,0.152583,-0.189885,0.000000
5.425831,-0.192690,0.147163,0.000000,0.000000,3.141593,0.000000,-0.004573,0.015744,0.000000,0.145529,-0.187225,0.000000
5.445852,-0.192753,0.147440,0.000000,0.000000,3.141593,0.000000,-0.001730,0.012022,0.000000,0.138474,-0.184565,0.000000
5.465874,-0.192760,0.147644,0.000000,0.000000,3.141593,0.000000,0.000972,0.008354,0.000000,0.131419,-0.181905,0.000000
5.485895,-0.192715,0.147775,0.000000,0.000000,3.141593,0.000000,0.003533,0.004738,0.000000,0.124365,-0.179246,0.000000
5.505917,-0.192620,0.147834,0.000000,0.000000,3.141593,0.000000,0.005952,0.001176,0.000000,0.117310,-0.176586,0.000000
5.525938,-0.192477,0.147823,0.000000,0.000000,3.141593,0.000000,0.008230,-0.002333,0.000000,0.110256,-0.173926,0.000000
5.545960,-0.192291,0.147741,0.000000,0.000000,3.141593,0.000000,0.010367,-0.005789,0.000000,0.103201,-0.171266,0.000000
5.565981,-0.192063,0.147591,0.000000,0.000000,3.141593,0.000000,0.012363,-0.009191,0.000000,0.096147,-0.168607,0.000000
5.586003,-0.191797,0.147374,0.000000,0.000000,3.141593,0.000000,0.014217,-0.012540,0.000000,0.089092,-0.165947,0.000000
5.606024,-0.191495,0.147089,0.000000,0.000000,3.141593,0.000000,0.015930,-0.015836,0.000000,0.082038,-0.163287,0.000000
5.626046,-0.191160,0.146740,0.000000,0.000000,3.141593,0.000000,0.017502,-0.019079,0.000000,0.074983,-0.160627,0.000000
5.646067,-0.190795,0.146326,0.000000,0.000000,3.141593,0.000000,0.018933,-0.022268,0.000000,0.067928,-0.157968,0.000000
5.666089,-0.190403,0.145849,0.000000,0.000000,3.141593,0.000000,0.020222,-0.025404,0.000000,0.060874,-0.155308,0.000000
5.686110,-0.189986,0.145309,0.000000,0.000000,3.141593,0.000000,0.021370,-0.028487,0.000000,0.053819,-0.152648,0.000000
5.706132,-0.189548,0.144708,0.000000,0.000000,3.141593,0.000000,0.022377,-0.031517,0.000000,0.046765,-0.149988,0.000000
5.726154,-0.189091,0.144047,0.000000,0.000000,3.141593,0.000000,0.023243,-0.034493,0.000000,0.039710,-0.147329,0.000000
5.746175,-0.188618,0.143327,0.000000,0.000000,3.141593,0.000000,0.023968,-0.037416,0.000000,0.032656,-0.144669,0.000000
5.766197,-0.188132,0.142549,0.000000,0.000000,3.141593,0.000000,0.024551,-0.040286,0.000000,0.025601,-0.142009,0.000000
5.786218,-0.187636,0.141715,0.000000,0.000000,3.141593,0.000000,0.024993,-0.043102,0.000000,0.018547,-0.139349,0.000000
5.806240,-0.187132,0.140824,0.000000,0.000000,3.141593,0.000000,0.025293,-0.045866,0.000000,0.011492,-0.136690,0.000000
5.826261,-0.186624,0.139878,0.000000,0.000000,3.141593,0.000000,0.025453,-0.048576,0.000000,0.004438,-0.134030,0.000000
5.846283,-0.186114,0.138879,0.000000,0.000000,3.141593,0.000000,0.025421,-0.051165,0.000000,-0.010367,-0.120966,0.000000
5.866304,-0.185609,0.137832,0.000000,0.000000,3.141593,0.000000,0.025023,-0.053400,0.000000,-0.029365,-0.102274,0.000000
5.886326,-0.185115,0.136744,0.000000,0.000000,3.141593,0.000000,0.024245,-0.055261,0.000000,-0.048363,-0.083581,0.000000
5.906347,-0.184641,0.135622,0.000000,0.000000,3.141593,0.000000,0.023086,-0.056747,0.000000,-0.067361,-0.064888,0.000000
5.926369,-0.184193,0.134474,0.000000,0.000000,3.141593,0.000000,0.021548,-0.057859,0.000000,-0.086359,-0.046196,0.000000
5.946390,-0.183780,0.133307,0.000000,0.000000,3.141593,0.000000,0.019628,-0.058597,0.000000,-0.105356,-0.027503,0.000000
5.966412,-0.183410,0.132130,0.000000,0.000000,3.141593,0.000000,0.017329,-0.058960,0.000000,-0.124354,-0.008811,0.000000
5.986433,-0.183089,0.130949,0.000000,0.000000,3.141593,0.000000,0.014649,-0.058949,0.000000,-0.143352,0.009882,0.000000
6.006455,-0.182826,0.129772,0.000000,0.000000,3.141593,0.000000,0.011589,-0.058565,0.000000,-0.162350,0.028575,0.000000
6.026476,-0.182627,0.128606,0.000000,0.000000,3.141593,0.000000,0.008148,-0.057805,0.000000,-0.181348,0.047267,0.000000
6.046498,-0.182502,0.127460,0.000000,0.000000,3.141593,0.000000,0.004327,-0.056672,0.000000,-0.200346,0.065960,0.000000
6.066519,-0.182457,0.126339,0.000000,0.000000,3.141593,0.000000,0.000125,-0.055164,0.000000,-0.219344,0.084653,0.000000
6.086541,-0.182499,0.125253,0.000000,0.000000,3.141593,0.000000,-0.004456,-0.053282,0.000000,-0.238342,0.103345,0.000000
6.106562,-0.182638,0.124208,0.000000,0.000000,3.141593,0.000000,-0.009419,-0.051026,0.000000,-0.257340,0.122038,0.000000
6.126584,-0.182879,0.123212,0.000000,0.000000,3.141593,0.000000,-0.014761,-0.048395,0.000000,-0.276337,0.140730,0.000000
6.146605,-0.183231,0.122273,0.000000,0.000000,3.141593,0.000000,-0.020484,-0.045391,0.000000,-0.295335,0.159423,0.000000
6.166627,-0.183702,0.121397,0.000000,0.000000,3.141593,0.000000,-0.026587,-0.042012,0.000000,-0.314333,0.178116,0.000000
6.186648,-0.184298,0.120593,0.000000,0.000000,3.141593,0.000000,-0.033071,-0.038258,0.000000,-0.333331,0.196808,0.000000
6.206670,-0.185029,0.119868,0.000000,0.000000,3.141593,0.000000,-0.039935,-0.034131,0.000000,-0.352329,0.215501,0.000000
6.226691,-0.185900,0.119229,0.000000,0.000000,3.141593,0.000000,-0.047056,-0.029677,0.000000,-0.343161,0.223269,0.000000
6.246713,-0.186908,0.118679,0.000000,0.000000,3.141593,0.000000,-0.053471,-0.025270,0.000000,-0.297655,0.216944,0.000000
6.266734,-0.188035,0.118216,0.000000,0.000000,3.141593,0.000000,-0.058975,-0.020990,0.000000,-0.252150,0.210619,0.000000
6.286756,-0.189263,0.117838,0.000000,0.000000,3.141593,0.000000,-0.063568,-0.016836,0.000000,-0.206645,0.204293,0.000000
6.306777,-0.190574,0.117541,0.000000,0.000000,3.141593,0.000000,-0.067250,-0.012809,0.000000,-0.161139,0.197968,0.000000
6.326799,-0.191950,0.117324,0.000000,0.000000,3.141593,0.000000,-0.070020,-0.008909,0.000000,-0.115634,0.191643,0.000000
6.346821,-0.193372,0.117184,0.000000,0.000000,3.141593,0.000000,-0.071880,-0.005135,0.000000,-0.070129,0.185317,0.000000
6.366842,-0.194822,0.117117,0.000000,0.000000,3.141593,0.000000,-0.072829,-0.001488,0.000000,-0.024623,0.178992,0.000000
6.386864,-0.196282,0.117123,0.000000,0.000000,3.141593,0.000000,-0.072866,0.002032,0.000000,0.020882,0.172667,0.000000
6.406885,-0.197734,0.117198,0.000000,0.000000,3.141593,0.000000,-0.071992,0.005426,0.000000,0.066387,0.166341,0.000000
6.426907,-0.199159,0.117340,0.000000,0.000000,3.141593,0.000000,-0.070208,0.008693,0.000000,0.111893,0.160016,0.000000
6.446928,-0.200539,0.117545,0.000000,0.000000,3.141593,0.000000,-0.067512,0.011833,0.000000,0.157398,0.153691,0.000000
6.466950,-0.201856,0.117813,0.000000,0.000000,3.141593,0.000000,-0.063905,0.014847,0.000000,0.202903,0.147365,0.000000
6.486971,-0.203092,0.118139,0.000000,0.000000,3.141593,0.000000,-0.059387,0.017734,0.000000,0.248409,0.141040,0.000000
6.506993,-0.204228,0.118522,0.000000,0.000000,3.141593,0.000000,-0.053958,0.020495,0.000000,0.293914,0.134715,0.000000
6.527014,-0.205246,0.118959,0.000000,0.000000,3.141593,0.000000,-0.047618,0.023129,0.000000,0.339419,0.128389,0.000000
6.547036,-0.206129,0.119447,0.000000,0.000000,3.141593,0.000000,-0.040367,0.025636,0.000000,0.384925,0.122064,0.000000
6.567057,-0.206857,0.119984,0.000000,0.000000,3.141593,0.000000,-0.032204,0.028017,0.000000,0.430430,0.115739,0.000000
6.587079,-0.207412,0.120568,0.000000,0.000000,3.141593,0.000000,-0.023131,0.030271,0.000000,0.475936,0.109413,0.000000
6.607100,-0.207777,0.121196,0.000000,0.000000,3.141593,0.000000,-0.013266,0.032392,0.000000,0.488767,0.101341,0.000000
6.627122,-0.207948,0.121864,0.000000,0.000000,3.141593,0.000000,-0.003921,0.034309,0.000000,0.444693,0.090227,0.000000
6.647143,-0.207940,0.122568,0.000000,0.000000,3.141593,0.000000,0.004541,0.036004,0.000000,0.400619,0.079113,0.000000
6.667165,-0.207772,0.123304,0.000000,0.000000,3.141593,0.000000,0.012121,0.037477,0.000000,0.356546,0.067999,0.000000
6.687186,-0.207461,0.124067,0.000000,0.000000,3.141593,0.000000,0.018818,0.038727,0.000000,0.312472,0.056885,0.000000
6.707208,-0.207024,0.124853,0.000000,0.000000,3.141593,0.000000,0.024633,0.039755,0.000000,0.268398,0.045771,0.000000
6.727229,-0.206480,0.125658,0.000000,0.000000,3.141593,0.000000,0.029566,0.040560,0.000000,0.224324,0.034657,0.000000
6.747251,-0.205846,0.126476,0.000000,0.000000,3.141593,0.000000,0.033616,0.041143,0.000000,0.180250,0.023543,0.000000
6.767272,-0.205140,0.127304,0.000000,0.000000,3.141593,0.000000,0.036784,0.041503,0.000000,0.136176,0.012429,0.000000
6.787294,-0.204379,0.128136,0.000000,0.000000,3.141593,0.000000,0.039069,0.041641,0.000000,0.092102,0.001315,0.000000
6.807315,-0.203581,0.128970,0.000000,0.000000,3.141593,0.000000,0.040472,0.041556,0.000000,0.048028,-0.009799,0.000000
6.827337,-0.202764,0.129799,0.000000,0.000000,3.141593,0.000000,0.040992,0.041248,0.000000,0.003955,-0.020913,0.000000
6.847358,-0.201946,0.130620,0.000000,0.000000,3.141593,0.000000,0.040630,0.040718,0.000000,-0.040119,-0.032027,0.000000
6.867380,-0.201143,0.131428,0.000000,0.000000,3.141593,0.000000,0.039386,0.039966,0.000000,-0.084193,-0.043141,0.000000
6.887401,-0.200375,0.132219,0.000000,0.000000,3.141593,0.000000,0.037259,0.038991,0.000000,-0.128267,-0.054255,0.000000
6.907423,-0.199657,0.132988,0.000000,0.000000,3.141593,0.000000,0.034249,0.037793,0.000000,-0.172341,-0.065369,0.000000
6.927444,-0.199009,0.133731,0.000000,0.000000,3.141593,0.000000,0.030358,0.036373,0.000000,-0.216415,-0.076483,0.000000
6.947466,-0.198448,0.134443,0.000000,0.000000,3.141593,0.000000,0.025583,0.034731,0.000000,-0.260489,-0.087597,0.000000
6.967487,-0.197990,0.135120,0.000000,0.000000,3.141593,0.000000,0.019927,0.032866,0.000000,-0.304562,-0.098711,0.000000
6.987509,-0.197655,0.135757,0.000000,0.000000,3.141593,0.000000,0.013388,0.030778,0.000000,-0.348636,-0.109825,0.000000
7.007531,-0.197460,0.136351,0.000000,0.000000,3.141593,0.000000,0.005966,0.028468,0.000000,-0.392710,-0.120939,0.000000
7.027552,-0.197422,0.136896,0.000000,0.000000,3.141593,0.000000,-0.002275,0.025949,0.000000,-0.416087,-0.127311,0.000000
7.047574,-0.197550,0.137390,0.000000,0.000000,3.141593,0.000000,-0.010355,0.023448,0.000000,-0.391038,-0.122591,0.000000
7.067595,-0.197834,0.137835,0.000000,0.000000,3.141593,0.000000,-0.017934,0.021041,0.000000,-0.365990,-0.117871,0.000000
7.087617,-0.198264,0.138233,0.000000,0.000000,3.141593,0.000000,-0.025011,0.018728,0.000000,-0.340941,-0.113151,0.000000
7.107638,-0.198832,0.138586,0.000000,0.000000,3.141593,0.000000,-0.031586,0.016510,0.000000,-0.315893,-0.108431,0.000000
7.127660,-0.199526,0.138895,0.000000,0.000000,3.141593,0.000000,-0.037660,0.014386,0.000000,-0.290844,-0.103711,0.000000
7.147681,-0.200336,0.139163,0.000000,0.000000,3.141593,0.000000,-0.043232,0.012357,0.000000,-0.265795,-0.098991,0.000000
7.167703,-0.201254,0.139390,0.000000,0.000000,3.141593,0.000000,-0.048303,0.010422,0.000000,-0.240747,-0.094271,0.000000
7.187724,-0.202267,0.139581,0.000000,0.000000,3.141593,0.000000,-0.052873,0.008582,0.000000,-0.215698,-0.089551,0.000000
7.207746,-0.203367,0.139735,0.000000,0.000000,3.141593,0.000000,-0.056940,0.006836,0.000000,-0.190650,-0.084831,0.000000
7.227767,-0.204544,0.139855,0.000000,0.000000,3.141593,0.000000,-0.060507,0.005185,0.000000,-0.165601,-0.080111,0.000000
7.247789,-0.205787,0.139943,0.000000,0.000000,3.141593,0.000000,-0.063572,0.003628,0.000000,-0.140553,-0.075391,0.000000
7.267810,-0.207086,0.140001,0.000000,0.000000,3.141593,0.000000,-0.066135,0.002166,0.000000,-0.115504,-0.070671,0.000000
7.287832,-0.208432,0.140030,0.000000,0.000000,3.141593,0.000000,-0.068197,0.000798,0.000000,-0.090456,-0.065951,0.000000
7.307853,-0.209814,0.140033,0.000000,0.000000,3.141593,0.000000,-0.069757,-0.000475,0.000000,-0.065407,-0.061231,0.000000
7.327875,-0.211222,0.140012,0.000000,0.000000,3.141593,0.000000,-0.070816,-0.001654,0.000000,-0.040358,-0.056511,0.000000
7.347896,-0.212646,0.139968,0.000000,0.000000,3.141593,0.000000,-0.071373,-0.002738,0.000000,-0.015310,-0.051791,0.000000
7.367918,-0.214076,0.139903,0.000000,0.000000,3.141593,0.000000,-0.071429,-0.003727,0.000000,0.009739,-0.047071,0.000000
7.387939,-0.215503,0.139819,0.000000,0.000000,3.141593,0.000000,-0.070983,-0.004623,0.000000,0.034787,-0.042351,0.000000
7.407961,-0.216916,0.139719,0.000000,0.000000,3.141593,0.000000,-0.070036,-0.005423,0.000000,0.059836,-0.037631,0.000000
7.427982,-0.218304,0.139603,0.000000,0.000000,3.141593,0.000000,-0.068587,-0.006129,0.000000,0.084884,-0.032911,0.000000
7.448004,-0.219659,0.139474,0.000000,0.000000,3.141593,0.000000,-0.066637,-0.006741,0.000000,0.109933,-0.028191,0.000000
7.468025,-0.220969,0.139333,0.000000,0.000000,3.141593,0.000000,-0.064185,-0.007258,0.000000,0.134981,-0.023471,0.000000
7.488047,-0.222225,0.139184,0.000000,0.000000,3.141593,0.000000,-0.061232,-0.007681,0.000000,0.160030,-0.018751,0.000000
7.508068,-0.223418,0.139026,0.000000,0.000000,3.141593,0.000000,-0.057769,-0.008019,0.000000,0.187903,-0.017837,0.000000
7.528090,-0.224534,0.138862,0.000000,0.000000,3.141593,0.000000,-0.053651,-0.008472,0.000000,0.223544,-0.027396,0.000000
7.548111,-0.225561,0.138686,0.000000,0.000000,3.141593,0.000000,-0.048818,-0.009116,0.000000,0.259186,-0.036955,0.000000
7.568133,-0.226484,0.138495,0.000000,0.000000,3.141593,0.000000,-0.043272,-0.009952,0.000000,0.294828,-0.046513,0.000000
7.588154,-0.227289,0.138286,0.000000,0.000000,3.141593,0.000000,-0.037012,-0.010979,0.000000,0.330470,-0.056072,0.000000
7.608176,-0.227962,0.138054,0.000000,0.000000,3.141593,0.000000,-0.030039,-0.012197,0.000000,0.366112,-0.065631,0.000000
7.628198,-0.228487,0.137796,0.000000,0.000000,3.141593,0.000000,-0.022352,-0.013607,0.000000,0.401753,-0.075190,0.000000
7.648219,-0.228852,0.137508,0.000000,0.000000,3.141593,0.000000,-0.013952,-0.015208,0.000000,0.437395,-0.084749,0.000000
7.668241,-0.229041,0.137186,0.000000,0.000000,3.141593,0.000000,-0.004837,-0.017000,0.000000,0.473037,-0.094308,0.000000
7.688262,-0.229041,0.136826,0.000000,0.000000,3.141593,0.000000,0.004990,-0.018984,0.000000,0.508679,-0.103867,0.000000
7.708284,-0.228837,0.136425,0.000000,0.000000,3.141593,0.000000,0.015405,-0.021145,0.000000,0.504933,-0.108873,0.000000
7.728305,-0.228433,0.135980,0.000000,0.000000,3.141593,0.000000,0.024643,-0.023278,0.000000,0.417829,-0.104246,0.000000
7.748327,-0.227862,0.135493,0.000000,0.000000,3.141593,0.000000,0.032136,-0.025319,0.000000,0.330724,-0.099619,0.000000
7.768348,-0.227158,0.134967,0.000000,0.000000,3.141593,0.000000,0.037886,-0.027268,0.000000,0.243619,-0.094992,0.000000
7.788370,-0.226356,0.134402,0.000000,0.000000,3.141593,0.000000,0.041891,-0.029123,0.000000,0.156515,-0.090365,0.000000
7.808391,-0.225492,0.133801,0.000000,0.000000,3.141593,0.000000,0.044153,-0.030886,0.000000,0.069410,-0.085738,0.000000
7.828413,-0.224600,0.133166,0.000000,0.000000,3.141593,0.000000,0.044671,-0.032556,0.000000,-0.017694,-0.081111,0.000000
7.848434,-0.223715,0.132498,0.000000,0.000000,3.141593,0.000000,0.043445,-0.034134,0.000000,-0.104799,-0.076484,0.000000
7.868456,-0.222872,0.131800,0.000000,0.000000,3.141593,0.000000,0.040474,-0.035619,0.000000,-0.191904,-0.071856,0.000000
7.888477,-0.222106,0.131072,0.000000,0.000000,3.141593,0.000000,0.035760,-0.037011,0.000000,-0.279008,-0.067229,0.000000
7.908499,-0.221451,0.130318,0.000000,0.000000,3.141593,0.000000,0.029551,-0.038290,0.000000,-0.316413,-0.058373,0.000000
7.928520,-0.220922,0.129541,0.000000,0.000000,3.141593,0.000000,0.023339,-0.039328,0.000000,-0.304134,-0.045288,0.000000
7.948542,-0.220515,0.128745,0.000000,0.000000,3.141593,0.000000,0.017372,-0.040103,0.000000,-0.291856,-0.032203,0.000000
7.968563,-0.220224,0.127937,0.000000,0.000000,3.141593,0.000000,0.011652,-0.040617,0.000000,-0.279577,-0.019119,0.000000
7.988585,-0.220046,0.127121,0.000000,0.000000,3.141593,0.000000,0.006177,-0.040869,0.000000,-0.267299,-0.006034,0.000000
8.008606,-0.219975,0.126302,0.000000,0.000000,3.141593,0.000000,0.000948,-0.040859,0.000000,-0.255020,0.007050,0.000000
8.028628,-0.220007,0.125486,0.000000,0.000000,3.141593,0.000000,-0.004034,-0.040587,0.000000,-0.242741,0.020135,0.000000
8.048649,-0.220135,0.124679,0.000000,0.000000,3.141593,0.000000,-0.008772,-0.040052,0.000000,-0.230463,0.033220,0.000000
8.068671,-0.220356,0.123884,0.000000,0.000000,3.141593,0.000000,-0.013263,-0.039256,0.000000,-0.218184,0.046304,0.000000
8.088692,-0.220665,0.123108,0.000000,0.000000,3.141593,0.000000,-0.017508,-0.038198,0.000000,-0.205906,0.059389,0.000000
8.108714,-0.221056,0.122356,0.000000,0.000000,3.141593,0.000000,-0.021508,-0.036878,0.000000,-0.193627,0.072474,0.000000
8.128735,-0.221524,0.121633,0.000000,0.000000,3.141593,0.000000,-0.025262,-0.035296,0.000000,-0.181349,0.085558,0.000000
8.148757,-0.222066,0.120945,0.000000,0.000000,3.141593,0.000000,-0.028770,-0.033452,0.000000,-0.169070,0.098643,0.000000
8.168778,-0.222675,0.120296,0.000000,0.000000,3.141593,0.000000,-0.032032,-0.031346,0.000000,-0.156791,0.111728,0.000000
8.188800,-0.223347,0.119691,0.000000,0.000000,3.141593,0.000000,-0.035048,-0.028978,0.000000,-0.144513,0.124812,0.000000
8.208821,-0.224077,0.119137,0.000000,0.000000,3.141593,0.000000,-0.037819,-0.026348,0.000000,-0.132234,0.137897,0.000000
8.228843,-0.224859,0.118638,0.000000,0.000000,3.141593,0.000000,-0.040343,-0.023456,0.000000,-0.119956,0.150982,0.000000
8.248864,-0.225690,0.118199,0.000000,0.000000,3.141593,0.000000,-0.042622,-0.020303,0.000000,-0.107677,0.164066,0.000000
8.268886,-0.226564,0.117827,0.000000,0.000000,3.141593,0.000000,-0.044655,-0.016887,0.000000,-0.095399,0.177151,0.000000
8.288908,-0.227477,0.117525,0.000000,0.000000,3.141593,0.000000,-0.046442,-0.013209,0.000000,-0.083120,0.190235,0.000000
8.308929,-0.228423,0.117300,0.000000,0.000000,3.141593,0.000000,-0.047983,-0.009269,0.000000,-0.070841,0.203320,0.000000
8.328951,-0.229397,0.117156,0.000000,0.000000,3.141593,0.000000,-0.049279,-0.005067,0.000000,-0.058563,0.216405,0.000000
8.348972,-0.230394,0.117098,0.000000,0.000000,3.141593,0.000000,-0.050328,-0.000604,0.000000,-0.046284,0.229489,0.000000
8.368994,-0.231410,0.117133,0.000000,0.000000,3.141593,0.000000,-0.051132,0.004122,0.000000,-0.034006,0.242574,0.000000
8.389015,-0.232440,0.117265,0.000000,0.000000,3.141593,0.000000,-0.051690,0.009110,0.000000,-0.021727,0.255659,0.000000
8.409037,-0.233479,0.117497,0.000000,0.000000,3.141593,0.000000,-0.052038,0.013994,0.000000,-0.013454,0.227869,0.000000
8.429058,-0.234523,0.117821,0.000000,0.000000,3.141593,0.000000,-0.052229,0.018229,0.000000,-0.005660,0.195201,0.000000
8.449080,-0.235569,0.118223,0.000000,0.000000,3.141593,0.000000,-0.052265,0.021810,0.000000,0.002135,0.162532,0.000000
8.469101,-0.236615,0.118690,0.000000,0.000000,3.141593,0.000000,-0.052144,0.024737,0.000000,0.009929,0.129863,0.000000
8.489123,-0.237656,0.119209,0.000000,0.000000,3.141593,0.000000,-0.051867,0.027010,0.000000,0.017724,0.097195,0.000000
8.509144,-0.238690,0.119767,0.000000,0.000000,3.141593,0.000000,-0.051434,0.028629,0.000000,0.025518,0.064526,0.000000
8.529166,-0.239715,0.120351,0.000000,0.000000,3.141593,0.000000,-0.050845,0.029594,0.000000,0.033313,0.031857,0.000000
8.549187,-0.240725,0.120948,0.000000,0.000000,3.141593,0.000000,-0.050100,0.029905,0.000000,0.041107,-0.000812,0.000000
8.569209,-0.241720,0.121544,0.000000,0.000000,3.141593,0.000000,-0.049199,0.029562,0.000000,0.048902,-0.033480,0.000000
8.589230,-0.242694,0.122127,0.000000,0.000000,3.141593,0.000000,-0.048142,0.028564,0.000000,0.056696,-0.066149,0.000000
8.609252,-0.243646,0.122684,0.000000,0.000000,3.141593,0.000000,-0.046929,0.026913,0.000000,0.064491,-0.098818,0.000000
8.629273,-0.244573,0.123201,0.000000,0.000000,3.141593,0.000000,-0.045560,0.024607,0.000000,0.072285,-0.131487,0.000000
8.649295,-0.245470,0.123665,0.000000,0.000000,3.141593,0.000000,-0.044034,0.021648,0.000000,0.080080,-0.164155,0.000000
8.669316,-0.246335,0.124063,0.000000,0.000000,3.141593,0.000000,-0.042353,0.018034,0.000000,0.087874,-0.196824,0.000000
8.689338,-0.247165,0.124383,0.000000,0.000000,3.141593,0.000000,-0.040516,0.013766,0.000000,0.095668,-0.229493,0.000000
8.709359,-0.247956,0.124610,0.000000,0.000000,3.141593,0.000000,-0.038522,0.008845,0.000000,0.103463,-0.262161,0.000000
8.729381,-0.248706,0.124732,0.000000,0.000000,3.141593,0.000000,-0.036373,0.003269,0.000000,0.111257,-0.294830,0.000000
8.749402,-0.249411,0.124737,0.000000,0.000000,3.141593,0.000000,-0.034067,-0.002961,0.000000,0.119052,-0.327499,0.000000
8.769424,-0.250069,0.124609,0.000000,0.000000,3.141593,0.000000,-0.031605,-0.009845,0.000000,0.126846,-0.360168,0.000000
8.789445,-0.250676,0.124338,0.000000,0.000000,3.141593,0.000000,-0.028996,-0.017341,0.000000,0.131693,-0.376882,0.000000
8.809467,-0.251230,0.123917,0.000000,0.000000,3.141593,0.000000,-0.026391,-0.024616,0.000000,0.128456,-0.349839,0.000000
8.829488,-0.251733,0.123356,0.000000,0.000000,3.141593,0.000000,-0.023852,-0.031350,0.000000,0.125219,-0.322797,0.000000
8.849510,-0.252186,0.122665,0.000000,0.000000,3.141593,0.000000,-0.021377,-0.037542,0.000000,0.121982,-0.295754,0.000000
8.869531,-0.252590,0.121856,0.000000,0.000000,3.141593,0.000000,-0.018967,-0.043192,0.000000,0.118744,-0.268711,0.000000
8.889553,-0.252946,0.120939,0.000000,0.000000,3.141593,0.000000,-0.016622,-0.048302,0.000000,0.115507,-0.241668,0.000000
8.909575,-0.253256,0.119926,0.000000,0.000000,3.141593,0.000000,-0.014342,-0.052870,0.000000,0.112270,-0.214625,0.000000
8.929596,-0.253521,0.118826,0.000000,0.000000,3.141593,0.000000,-0.012127,-0.056896,0.000000,0.109032,-0.187582,0.000000
8.949618,-0.253742,0.117651,0.000000,0.000000,3.141593,0.000000,-0.009976,-0.060381,0.000000,0.105795,-0.160539,0.000000
8.969639,-0.253921,0.116412,0.000000,0.000000,3.141593,0.000000,-0.007890,-0.063324,0.000000,0.102558,-0.133497,0.000000
8.989661,-0.254058,0.115119,0.000000,0.000000,3.141593,0.000000,-0.005869,-0.065726,0.000000,0.099321,-0.106454,0.000000
9.009682,-0.254156,0.113784,0.000000,0.000000,3.141593,0.000000,-0.003913,-0.067587,0.000000,0.096083,-0.079411,0.000000
9.029704,-0.254215,0.112416,0.000000,0.000000,3.141593,0.000000,-0.002022,-0.068906,0.000000,0.092846,-0.052368,0.000000
9.049725,-0.254237,0.111028,0.000000,0.000000,3.141593,0.000000,-0.000195,-0.069684,0.000000,0.089609,-0.025325,0.000000
9.069747,-0.254224,0.109630,0.000000,0.000000,3.141593,0.000000,0.001566,-0.069920,0.000000,0.086371,0.001718,0.000000
9.089768,-0.254175,0.108232,0.000000,0.000000,3.141593,0.000000,0.003263,-0.069615,0.000000,0.083134,0.028760,0.000000
9.109790,-0.254093,0.106846,0.000000,0.000000,3.141593,0.000000,0.004895,-0.068769,0.000000,0.079897,0.055803,0.000000
9.129811,-0.253980,0.105482,0.000000,0.000000,3.141593,0.000000,0.006462,-0.067381,0.000000,0.076660,0.082846,0.000000
9.149833,-0.253835,0.104151,0.000000,0.000000,3.141593,0.000000,0.007965,-0.065451,0.000000,0.073422,0.109889,0.000000
9.169854,-0.253661,0.102864,0.000000,0.000000,3.141593,0.000000,0.009403,-0.062981,0.000000,0.070185,0.136932,0.000000
9.189876,-0.253459,0.101633,0.000000,0.000000,3.141593,0.000000,0.010775,-0.059968,0.000000,0.066948,0.163975,0.000000
9.209897,-0.253230,0.100467,0.000000,0.000000,3.141593,0.000000,0.012083,-0.056414,0.000000,0.063710,0.191018,0.000000
9.229919,-0.252975,0.099377,0.000000,0.000000,3.141593,0.000000,0.013326,-0.052319,0.000000,0.060473,0.218060,0.000000
9.249940,-0.252697,0.098375,0.000000,0.000000,3.141593,0.000000,0.014505,-0.047683,0.000000,0.057236,0.245103,0.000000
9.269962,-0.252395,0.097471,0.000000,0.000000,3.141593,0.000000,0.015629,-0.042601,0.000000,0.056023,0.252771,0.000000
9.289983,-0.252071,0.096668,0.000000,0.000000,3.141593,0.000000,0.016758,-0.037658,0.000000,0.056839,0.241029,0.000000
9.310005,-0.251724,0.095962,0.000000,0.000000,3.141593,0.000000,0.017905,-0.032950,0.000000,0.057655,0.229287,0.000000
9.330026,-0.251354,0.095347,0.000000,0.000000,3.141593,0.000000,0.019067,-0.028477,0.000000,0.058470,0.217545,0.000000
9.350048,-0.250960,0.094820,0.000000,0.000000,3.141593,0.000000,0.020246,-0.024239,0.000000,0.059286,0.205804,0.000000
9.370069,-0.250543,0.094375,0.000000,0.000000,3.141593,0.000000,0.021441,-0.020236,0.000000,0.060101,0.194062,0.000000
9.390091,-0.250102,0.094008,0.000000,0.000000,3.141593,0.000000,0.022652,-0.016468,0.000000,0.060917,0.182320,0.000000
9.410112,-0.249636,0.093714,0.000000,0.000000,3.141593,0.000000,0.023880,-0.012935,0.000000,0.061733,0.170578,0.000000
9.430134,-0.249145,0.093488,0.000000,0.000000,3.141593,0.000000,0.025124,-0.009637,0.000000,0.062548,0.158836,0.000000
9.450155,-0.248630,0.093327,0.000000,0.000000,3.141593,0.000000,0.026385,-0.006575,0.000000,0.063364,0.147094,0.000000
9.470177,-0.248089,0.093224,0.000000,0.000000,3.141593,0.000000,0.027662,-0.003747,0.000000,0.064180,0.135352,0.000000
9.490198,-0.247522,0.093175,0.000000,0.000000,3.141593,0.000000,0.028955,-0.001155,0.000000,0.064995,0.123610,0.000000
9.510220,-0.246929,0.093176,0.000000,0.000000,3.141593,0.000000,0.030264,0.001202,0.000000,0.065811,0.111869,0.000000
9.530242,-0.246310,0.093221,0.000000,0.000000,3.141593,0.000000,0.031590,0.003325,0.000000,0.066627,0.100127,0.000000
9.550263,-0.245664,0.093307,0.000000,0.000000,3.141593,0.000000,0.032932,0.005212,0.000000,0.067442,0.088385,0.000000
9.570285,-0.244991,0.093429,0.000000,0.000000,3.141593,0.000000,0.034291,0.006864,0.000000,0.068258,0.076643,0.000000
9.590306,-0.244291,0.093581,0.000000,0.000000,3.141593,0.000000,0.035666,0.008281,0.000000,0.069074,0.064901,0.000000
9.610328,-0.243563,0.093759,0.000000,0.000000,3.141593,0.000000,0.037057,0.009463,0.000000,0.069889,0.053159,0.000000
9.630349,-0.242807,0.093958,0.000000,0.000000,3.141593,0.000000,0.038464,0.010409,0.000000,0.070705,0.041417,0.000000
9.650371,-0.242022,0.094174,0.000000,0.000000,3.141593,0.000000,0.039888,0.011121,0.000000,0.071520,0.029675,0.000000
9.670392,-0.241209,0.094402,0.000000,0.000000,3.141593,0.000000,0.041328,0.011598,0.000000,0.072336,0.017933,0.000000
9.690414,-0.240368,0.094637,0.000000,0.000000,3.141593,0.000000,0.042774,0.011868,0.000000,0.071220,0.011407,0.000000
9.710435,-0.239497,0.094877,0.000000,0.000000,3.141593,0.000000,0.044173,0.012073,0.000000,0.068580,0.008992,0.000000
9.730457,-0.238599,0.095120,0.000000,0.000000,3.141593,0.000000,0.045520,0.012228,0.000000,0.065940,0.006577,0.000000
9.750478,-0.237675,0.095366,0.000000,0.000000,3.141593,0.000000,0.046814,0.012336,0.000000,0.063301,0.004162,0.000000
9.770500,-0.236725,0.095614,0.000000,0.000000,3.141593,0.000000,0.048055,0.012395,0.000000,0.060661,0.001747,0.000000
9.790521,-0.235751,0.095862,0.000000,0.000000,3.141593,0.000000,0.049243,0.012406,0.000000,0.058021,-0.000668,0.000000
9.810543,-0.234753,0.096110,0.000000,0.000000,3.141593,0.000000,0.050378,0.012368,0.000000,0.055382,-0.003083,0.000000
9.830564,-0.233734,0.096357,0.000000,0.000000,3.141593,0.000000,0.051460,0.012282,0.000000,0.052742,-0.005498,0.000000
9.850586,-0.232693,0.096602,0.000000,0.000000,3.141593,0.000000,0.052490,0.012148,0.000000,0.050102,-0.007913,0.000000
9.870607,-0.231632,0.096843,0.000000,0.000000,3.141593,0.000000,0.053467,0.011966,0.000000,0.047463,-0.010327,0.000000
9.890629,-0.230552,0.097080,0.000000,0.000000,3.141593,0.000000,0.054390,0.011735,0.000000,0.044823,-0.012742,0.000000
9.910650,-0.229455,0.097313,0.000000,0.000000,3.141593,0.000000,0.055261,0.011455,0.000000,0.042183,-0.015157,0.000000
9.930672,-0.228340,0.097539,0.000000,0.000000,3.141593,0.000000,0.056080,0.011128,0.000000,0.039544,-0.017572,0.000000
9.950693,-0.227209,0.097758,0.000000,0.000000,3.141593,0.000000,0.056845,0.010752,0.000000,0.036904,-0.019987,0.000000
9.970715,-0.226064,0.097969,0.000000,0.000000,3.141593,0.000000,0.057557,0.010327,0.000000,0.034264,-0.022402,0.000000
